City_ID,City,Lat,Lng,Max Temp,Humidity,Cloudiness,Wind Speed,Country,Date
0,Cape Town,-33.9258,18.4232,60.12,85,40,5.86,ZA,2021-05-29 18:28:47
1,Qaanaaq,77.484,-69.3632,31.69,95,49,5.77,GL,2021-05-29 18:31:33
2,Ushuaia,-54.8,-68.3,29.86,93,90,9.22,AR,2021-05-29 18:31:51
3,Namibe,-15.1961,12.1522,72.61,78,0,6.13,AO,2021-05-29 18:32:00
4,Husavik,66.0449,-17.3389,58.91,58,100,11.77,IS,2021-05-29 18:32:01
5,Rikitea,-23.1203,-134.9692,77.09,84,100,19.42,PF,2021-05-29 18:32:01
6,Coquimbo,-29.9533,-71.3436,60.8,72,0,12.66,CL,2021-05-29 18:32:02
7,Katsuura,35.1333,140.3,68.14,92,99,12.15,JP,2021-05-29 18:32:02
8,Touros,-5.1989,-35.4608,85.1,71,4,16.02,BR,2021-05-29 18:32:02
9,Mataura,-46.1927,168.8643,49.48,95,100,4.99,NZ,2021-05-29 18:30:45
10,Carnarvon,-24.8667,113.6333,60.8,94,34,6.91,AU,2021-05-29 18:32:03
11,Busselton,-33.65,115.3333,54.09,93,91,11.03,AU,2021-05-29 18:30:24
12,Vestmannaeyjar,63.4427,-20.2734,47.39,87,75,20.71,IS,2021-05-29 18:32:03
13,Port Hardy,50.6996,-127.4199,50.18,81,40,5.75,CA,2021-05-29 18:32:04
14,San Andres,12.5847,-81.7006,81.54,79,20,12.68,CO,2021-05-29 18:30:05
15,Storebo,60.0948,5.2271,54.5,81,2,1.99,NO,2021-05-29 18:32:04
16,Butaritari,3.0707,172.7902,82.69,78,100,15.79,KI,2021-05-29 18:30:52
17,Mecca,21.4267,39.8261,89.91,33,25,6.8,SA,2021-05-29 18:30:39
18,Broken Hill,-31.95,141.4333,38.91,70,48,5.75,AU,2021-05-29 18:32:04
19,Leh,34.1667,77.5833,52.61,26,99,4.74,IN,2021-05-29 18:32:05
20,Bambous Virieux,-20.3428,57.7575,75.45,94,40,5.19,MU,2021-05-29 18:30:47
21,Charyshskoye,51.3978,83.5598,44.67,81,6,4.47,RU,2021-05-29 18:32:05
22,New Norfolk,-42.7826,147.0587,44.92,76,32,3.4,AU,2021-05-29 18:32:06
23,Hilo,19.7297,-155.09,78.62,75,20,0.0,US,2021-05-29 18:32:06
24,Yellowknife,62.456,-114.3525,52.32,46,40,3.0,CA,2021-05-29 18:32:06
25,Yerbogachen,61.2767,108.0108,40.57,72,100,7.67,RU,2021-05-29 18:32:07
26,Puerto Ayora,-0.7393,-90.3518,84.2,58,40,19.57,EC,2021-05-29 18:31:58
27,Aguimes,27.9054,-15.4461,70.43,56,20,20.71,ES,2021-05-29 18:32:07
28,Omsukchan,62.5333,155.8,30.99,88,100,7.07,RU,2021-05-29 18:32:08
29,Qasigiannguit,68.8193,-51.1922,61.05,31,12,26.55,GL,2021-05-29 18:32:08
30,College,64.8569,-147.8028,46.0,47,75,11.5,US,2021-05-29 18:30:16
31,Hermanus,-34.4187,19.2345,58.89,82,20,2.62,ZA,2021-05-29 18:31:41
32,Arraial Do Cabo,-22.9661,-42.0278,93.16,55,0,6.91,BR,2021-05-29 18:32:09
33,Margate,51.3813,1.3862,59.22,68,0,4.0,GB,2021-05-29 18:32:09
34,Kapaa,22.0752,-159.319,79.12,76,20,1.01,US,2021-05-29 18:31:58
35,Aklavik,68.2191,-135.0107,32.72,69,90,4.61,CA,2021-05-29 18:30:56
36,Jamestown,42.097,-79.2353,51.39,78,90,7.0,US,2021-05-29 18:30:21
37,Nikolskoye,59.7035,30.7861,51.69,67,0,4.52,RU,2021-05-29 18:32:10
38,Hailey,43.5196,-114.3153,64.9,34,13,5.99,US,2021-05-29 18:29:29
39,Port Elizabeth,-33.918,25.5701,56.1,94,75,12.66,ZA,2021-05-29 18:32:11
40,Oranjemund,-28.55,16.4333,58.98,76,100,17.34,NA,2021-05-29 18:32:12
41,Arlit,18.7369,7.3853,97.9,5,60,14.76,NE,2021-05-29 18:32:12
42,Te Anau,-45.4167,167.7167,45.97,96,100,7.07,NZ,2021-05-29 18:32:12
43,Hofn,64.2539,-15.2082,46.56,90,100,16.22,IS,2021-05-29 18:32:13
44,Albany,42.6001,-73.9662,50.72,82,100,6.17,US,2021-05-29 18:30:41
45,Mweka,-4.85,21.5667,77.81,59,97,2.53,CD,2021-05-29 18:32:13
46,Kruisfontein,-34.0033,24.7314,53.89,87,60,13.65,ZA,2021-05-29 18:31:34
47,Provideniya,64.3833,-173.3,43.2,47,7,11.27,RU,2021-05-29 18:32:14
48,Avarua,-21.2078,-159.775,73.45,73,20,3.44,CK,2021-05-29 18:32:14
49,Leningradskiy,69.3833,178.4167,34.11,79,97,6.8,RU,2021-05-29 18:32:14
50,Tuktoyaktuk,69.4541,-133.0374,28.4,93,90,5.75,CA,2021-05-29 18:30:43
51,Sinnamary,5.3833,-52.95,81.1,80,80,10.16,GF,2021-05-29 18:32:15
52,Buta,2.7858,24.73,72.39,99,100,4.43,CD,2021-05-29 18:32:15
53,Koudougou,12.25,-2.3667,100.67,18,84,6.69,BF,2021-05-29 18:32:16
54,Mar Del Plata,-38.0023,-57.5575,50.23,53,40,15.01,AR,2021-05-29 18:28:17
55,Auki,-8.7676,160.7034,75.16,92,100,2.66,SB,2021-05-29 18:32:16
56,Kimbe,-5.5502,150.1429,75.34,90,38,5.68,PG,2021-05-29 18:32:17
57,Rocha,-34.4833,-54.3333,52.3,57,9,16.84,UY,2021-05-29 18:32:18
58,Lorengau,-2.0226,147.2712,82.49,77,78,11.16,PG,2021-05-29 18:32:18
59,Vaini,-21.2,-175.2,71.76,100,75,2.3,TO,2021-05-29 18:32:19
60,Rantepao,-2.9701,119.8978,67.12,98,63,1.97,ID,2021-05-29 18:32:19
61,Bredasdorp,-34.5322,20.0403,54.72,88,5,5.59,ZA,2021-05-29 18:32:19
62,Coihaique,-45.5752,-72.0662,44.6,57,90,5.75,CL,2021-05-29 18:32:20
63,Bluff,-46.6,168.3333,49.8,86,100,20.07,NZ,2021-05-29 18:32:20
64,Mojo,8.6,39.1167,70.32,46,70,6.06,ET,2021-05-29 18:30:24
65,Bilibino,68.0546,166.4372,46.65,57,40,2.33,RU,2021-05-29 18:32:21
66,Anadyr,64.75,177.4833,39.7,55,0,8.01,RU,2021-05-29 18:32:21
67,Morden,49.1919,-98.1014,71.8,32,80,13.8,CA,2021-05-29 18:32:22
68,Vila Franca Do Campo,37.7167,-25.4333,66.61,72,54,3.98,PT,2021-05-29 18:32:22
69,Homer,59.6425,-151.5483,49.08,87,90,5.01,US,2021-05-29 18:32:22
70,Cunday,4.06,-74.6921,81.88,74,100,2.8,CO,2021-05-29 18:32:23
71,Mandurah,-32.55,115.7,60.98,73,5,15.46,AU,2021-05-29 18:32:23
72,Atuona,-9.8,-139.0333,78.69,72,28,9.82,PF,2021-05-29 18:32:24
73,Faanui,-16.4833,-151.75,79.3,69,86,3.56,PF,2021-05-29 18:32:24
74,Kavieng,-2.5744,150.7967,81.99,80,100,14.07,PG,2021-05-29 18:32:24
75,San Patricio,28.017,-97.5169,79.52,70,52,11.56,US,2021-05-29 18:32:25
76,Ilulissat,69.2167,-51.1,60.82,20,40,21.85,GL,2021-05-29 18:31:41
77,Salalah,17.0151,54.0924,84.29,89,75,8.05,OM,2021-05-29 18:32:25
78,Bennington,42.8781,-73.1968,52.45,76,90,0.0,US,2021-05-29 18:29:05
79,Klaksvik,62.2266,-6.589,50.92,78,7,13.67,FO,2021-05-29 18:32:25
80,Leshukonskoye,64.8989,45.7622,35.13,80,100,12.06,RU,2021-05-29 18:32:26
81,Pringsewu,-5.3582,104.9744,73.98,97,100,3.76,ID,2021-05-29 18:32:26
82,Awbari,26.5921,12.7805,96.08,9,0,5.97,LY,2021-05-29 18:32:27
83,Muroto,33.2833,134.15,68.49,72,98,10.25,JP,2021-05-29 18:32:27
84,Bardsir,29.9227,56.5743,75.25,11,6,4.18,IR,2021-05-29 18:28:14
85,Port Alfred,-33.5906,26.891,61.03,75,100,28.01,ZA,2021-05-29 18:30:34
86,Menongue,-14.6585,17.691,56.91,34,0,4.16,AO,2021-05-29 18:32:28
87,Fortuna,40.5982,-124.1573,55.65,86,90,11.5,US,2021-05-29 18:32:28
88,Hobart,-42.8794,147.3294,45.27,78,90,1.99,AU,2021-05-29 18:30:28
89,Tanout,14.9709,8.8879,90.25,19,93,2.66,NE,2021-05-29 18:32:29
90,Ponta Do Sol,32.6667,-17.1,71.13,61,34,4.92,PT,2021-05-29 18:31:56
91,Thurso,58.5927,-3.5259,46.4,93,75,3.44,GB,2021-05-29 18:30:11
92,Olafsvik,64.8945,-23.7142,44.64,89,100,29.55,IS,2021-05-29 18:32:09
93,Saint Simons,31.1352,-81.3901,89.6,55,40,8.05,US,2021-05-29 18:32:30
94,Pisco,-13.7,-76.2167,67.01,88,90,8.05,PE,2021-05-29 18:30:35
95,Boca Do Acre,-8.7522,-67.3978,85.95,60,100,1.03,BR,2021-05-29 18:32:31
96,Gorodets,56.6514,43.475,61.0,100,75,4.47,RU,2021-05-29 18:32:31
97,Ancud,-41.8697,-73.8203,50.43,72,100,8.19,CL,2021-05-29 18:32:31
98,Muros,42.7762,-9.0603,73.69,56,71,10.67,ES,2021-05-29 18:30:36
99,Port Moresby,-9.4431,147.1797,74.62,83,75,3.44,PG,2021-05-29 18:32:32
100,Mayo,38.8876,-76.5119,54.37,92,90,18.01,US,2021-05-29 18:32:32
101,Tuatapere,-46.1333,167.6833,49.82,93,100,7.94,NZ,2021-05-29 18:32:33
102,Port Macquarie,-31.4333,152.9167,52.9,80,88,15.12,AU,2021-05-29 18:31:26
103,Kadyy,57.787,43.1903,47.28,94,100,12.39,RU,2021-05-29 18:32:33
104,Bibiani,6.4635,-2.3194,78.84,80,66,3.47,GH,2021-05-29 18:32:34
105,Hervey Bay,-25.2986,152.8535,57.04,68,100,3.0,AU,2021-05-29 18:32:34
106,Hithadhoo,-0.6,73.0833,83.37,72,96,16.44,MV,2021-05-29 18:32:35
107,Sao Jose Do Egito,-7.4789,-37.2744,86.9,27,25,10.36,BR,2021-05-29 18:32:35
108,Trairi,-3.2778,-39.2689,85.46,63,73,10.76,BR,2021-05-29 18:28:42
109,Khash,28.2211,61.2158,82.58,11,0,6.13,IR,2021-05-29 18:28:19
110,Umm Lajj,25.0213,37.2685,85.98,56,100,6.73,SA,2021-05-29 18:32:36
111,Tiksi,71.6872,128.8694,30.79,97,85,8.41,RU,2021-05-29 18:32:36
112,Lake City,30.1897,-82.6393,90.93,48,90,16.11,US,2021-05-29 18:32:36
113,Ribeira Grande,38.5167,-28.7,66.6,72,75,0.0,PT,2021-05-29 18:30:24
114,Tateyama,34.9833,139.8667,68.05,86,100,4.36,JP,2021-05-29 18:32:37
115,Kathu,7.9178,98.3332,85.62,70,79,2.75,TH,2021-05-29 18:32:37
116,Bethel,41.3712,-73.414,49.5,89,100,3.0,US,2021-05-29 18:32:37
117,Upernavik,72.7868,-56.1549,31.46,92,100,17.31,GL,2021-05-29 18:32:38
118,Bowen,-20.0167,148.2333,64.62,93,67,11.72,AU,2021-05-29 18:32:39
119,Dikson,73.5069,80.5464,20.28,95,14,2.55,RU,2021-05-29 18:32:39
120,Hokitika,-42.7167,170.9667,48.22,87,100,12.17,NZ,2021-05-29 18:32:40
121,Thompson,55.7435,-97.8558,59.16,55,90,18.41,CA,2021-05-29 18:30:37
122,Porbandar,21.6422,69.6093,83.64,78,100,12.48,IN,2021-05-29 18:32:40
123,Beloha,-25.1667,45.05,64.9,78,0,4.0,MG,2021-05-29 18:32:40
124,Cabo San Lucas,22.8909,-109.9124,101.52,65,40,10.36,MX,2021-05-29 18:32:41
125,Saldanha,-33.0117,17.9442,57.2,82,93,8.32,ZA,2021-05-29 18:32:11
126,Jalu,29.0331,21.5482,96.22,13,4,12.59,LY,2021-05-29 18:32:42
127,Waterloo,43.4668,-80.5164,61.65,41,20,10.0,CA,2021-05-29 18:31:02
128,Galesong,-5.3166,119.3661,75.22,79,13,3.98,ID,2021-05-29 18:32:42
129,Dombarovskiy,50.7587,59.5386,68.16,59,100,3.22,RU,2021-05-29 18:32:42
130,Chokurdakh,70.6333,147.9167,49.32,51,8,10.27,RU,2021-05-29 18:32:43
131,Falkenstein,50.4779,12.3713,53.01,70,16,13.0,DE,2021-05-29 18:32:43
132,Tungor,53.3808,142.9564,34.75,94,100,14.07,RU,2021-05-29 18:32:43
133,Taksimo,56.3444,114.8794,44.56,89,100,6.31,RU,2021-05-29 18:32:44
134,Honiara,-9.4333,159.95,76.57,89,100,2.84,SB,2021-05-29 18:32:44
135,Mastic Beach,40.7668,-72.8521,52.05,83,90,1.99,US,2021-05-29 18:32:44
136,Virginia Beach,36.8529,-75.978,78.01,86,90,13.8,US,2021-05-29 18:29:26
137,Torbay,47.6666,-52.7314,57.97,54,75,14.97,CA,2021-05-29 18:32:45
138,Telgte,51.9833,7.7833,62.51,55,20,1.97,DE,2021-05-29 18:32:45
139,Maba,24.6841,113.5984,76.77,97,100,1.36,CN,2021-05-29 18:32:46
140,Sao Joao Da Barra,-21.6403,-41.0511,89.6,43,0,11.43,BR,2021-05-29 18:32:46
141,Atar,20.5169,-13.0499,104.04,10,48,15.21,MR,2021-05-29 18:32:46
142,Hobyo,5.3505,48.5268,79.7,81,96,21.77,SO,2021-05-29 18:32:47
143,Kattivakkam,13.2167,80.3167,88.07,80,91,12.28,IN,2021-05-29 18:32:47
144,Lebu,-37.6167,-73.65,53.69,65,100,6.85,CL,2021-05-29 18:32:47
145,Le Port,-20.9373,55.2919,71.6,78,0,8.05,RE,2021-05-29 18:32:48
146,Bengkulu,-3.8004,102.2655,75.33,86,100,2.57,ID,2021-05-29 18:32:48
147,Marawi,7.9986,124.2928,73.65,93,100,1.52,PH,2021-05-29 18:32:23
148,Talnakh,69.4865,88.3972,26.98,98,97,3.85,RU,2021-05-29 18:32:49
149,Saskylakh,71.9167,114.0833,30.29,97,62,7.29,RU,2021-05-29 18:32:49
150,Madison,34.7334,-86.5667,68.0,63,90,8.05,US,2021-05-29 18:32:49
151,Mayumba,-3.432,10.6554,77.23,90,32,5.82,GA,2021-05-29 18:32:50
152,Komsomolskiy,40.4272,71.7189,78.22,27,91,4.61,UZ,2021-05-29 18:31:42
153,Saint-Philippe,-21.3585,55.7679,71.15,79,15,5.28,RE,2021-05-29 18:32:50
154,Haines Junction,60.7522,-137.5108,48.15,46,100,10.36,CA,2021-05-29 18:32:51
155,Daura,11.5538,11.4085,83.55,50,100,13.51,NG,2021-05-29 18:32:51
156,Shimoda,34.6667,138.95,68.16,84,100,8.84,JP,2021-05-29 18:32:51
157,Halifax,44.6453,-63.5724,43.68,89,100,4.0,CA,2021-05-29 18:32:51
158,Khatanga,71.9667,102.5,36.32,82,100,10.83,RU,2021-05-29 18:30:30
159,Hovd,48.0056,91.6419,49.48,57,9,9.57,MN,2021-05-29 18:30:25
160,Vila Velha,-20.3297,-40.2925,87.8,48,0,13.8,BR,2021-05-29 18:29:01
161,Aswan,24.0934,32.907,94.91,14,96,14.94,EG,2021-05-29 18:32:52
162,Hailar,49.2,119.7,52.66,61,100,3.53,CN,2021-05-29 18:32:53
163,Castro,-24.7911,-50.0119,72.54,65,9,10.33,BR,2021-05-29 18:32:53
164,Mahebourg,-20.4081,57.7,75.49,94,40,3.44,MU,2021-05-29 18:32:54
165,Okhotsk,59.3833,143.3,35.1,94,86,9.89,RU,2021-05-29 18:32:54
166,Severo-Kurilsk,50.6789,156.125,39.78,83,100,5.28,RU,2021-05-29 18:32:15
167,Nazca,-14.8333,-74.95,80.1,39,97,7.2,PE,2021-05-29 18:32:55
168,Waingapu,-9.6567,120.2641,74.75,85,67,5.14,ID,2021-05-29 18:32:55
169,Verkhnyaya Maksakovka,61.635,50.9674,48.22,81,40,6.71,RU,2021-05-29 18:32:55
170,Tautira,-17.7333,-149.15,80.62,71,100,10.47,PF,2021-05-29 18:32:56
171,Pangai,-19.8,-174.35,75.2,94,75,2.3,TO,2021-05-29 18:32:56
172,Montceau-Les-Mines,46.6667,4.3667,72.52,71,12,6.98,FR,2021-05-29 18:32:57
173,Borovoy,55.4333,86.0833,47.48,61,0,0.83,RU,2021-05-29 18:32:57
174,Trelew,-43.249,-65.3051,49.46,30,4,20.92,AR,2021-05-29 18:32:57
175,Taltal,-25.4,-70.4833,68.13,66,24,5.1,CL,2021-05-29 18:32:58
176,Byron Bay,-28.65,153.6167,58.95,77,100,15.1,AU,2021-05-29 18:32:58
177,Viedma,-40.8135,-62.9967,52.0,36,6,20.58,AR,2021-05-29 18:30:54
178,Hoi An,15.8794,108.335,84.16,84,50,5.39,VN,2021-05-29 18:32:59
179,Fuengirola,36.54,-4.6247,72.0,73,0,8.05,ES,2021-05-29 18:32:59
180,Praia Da Vitoria,38.7333,-27.0667,69.8,73,75,8.55,PT,2021-05-29 18:33:00
181,Fukue,32.6881,128.8419,67.12,67,100,3.11,JP,2021-05-29 18:33:00
182,Iqaluit,63.7506,-68.5145,30.2,74,75,21.85,CA,2021-05-29 18:29:57
183,Pathein,16.7833,94.7333,78.58,88,100,2.3,MM,2021-05-29 18:33:01
184,Xining,36.6167,101.7667,52.47,61,39,3.76,CN,2021-05-29 18:33:01
185,Kaohsiung,22.6163,120.3133,85.03,80,40,1.99,TW,2021-05-29 18:33:02
186,Labuhan,-6.8844,112.2051,77.5,87,100,5.99,ID,2021-05-29 18:33:02
187,Maldonado,-34.6667,-54.9167,51.22,59,6,18.57,UY,2021-05-29 18:33:02
188,Kodiak,57.79,-152.4072,45.91,93,90,9.22,US,2021-05-29 18:33:03
189,Mount Isa,-20.7333,139.5,53.37,37,0,5.75,AU,2021-05-29 18:33:03
190,Tornio,65.8481,24.1466,46.42,69,31,9.95,FI,2021-05-29 18:33:03
191,Bijie,27.3125,105.2942,60.35,89,100,2.89,CN,2021-05-29 18:33:04
192,Borogontsy,62.6683,131.1683,47.8,92,100,4.88,RU,2021-05-29 18:33:04
193,Vryburg,-26.9566,24.7284,52.09,34,17,8.28,ZA,2021-05-29 18:33:05
194,Mahibadhoo,3.7833,72.9667,83.93,71,100,20.49,MV,2021-05-29 18:33:06
195,Punta Arenas,-53.15,-70.9167,37.4,56,75,19.57,CL,2021-05-29 18:33:06
196,Sturgis,41.7992,-85.4192,62.4,22,1,11.5,US,2021-05-29 18:33:06
197,Monte Alegre,-2.0078,-54.0692,86.56,65,85,1.43,BR,2021-05-29 18:33:07
198,Tilichiki,60.4667,166.1,37.38,84,100,6.24,RU,2021-05-29 18:33:07
199,Kiunga,-6.1219,141.2906,71.82,98,100,2.04,PG,2021-05-29 18:33:07
200,Muscat,23.6139,58.5922,93.22,42,31,7.14,OM,2021-05-29 18:32:55
201,Sulzbach-Rosenberg,49.4983,11.7517,61.59,72,0,7.9,DE,2021-05-29 18:33:08
202,Longyearbyen,78.2186,15.6401,35.6,69,75,8.05,SJ,2021-05-29 18:33:08
203,Cherskiy,68.75,161.3,50.7,46,34,14.92,RU,2021-05-29 18:33:09
204,Garden City,42.3256,-83.331,64.09,35,20,7.0,US,2021-05-29 18:32:07
205,Zhuhai,22.2769,113.5678,86.72,89,40,12.55,CN,2021-05-29 18:33:09
206,Ahipara,-35.1667,173.1667,54.37,77,65,10.07,NZ,2021-05-29 18:31:52
207,Antofagasta,-23.65,-70.4,71.22,60,35,7.27,CL,2021-05-29 18:32:30
208,Nador,35.174,-2.9287,68.0,77,20,5.75,MA,2021-05-29 18:33:10
209,Upata,8.0086,-62.3989,81.64,69,50,6.06,VE,2021-05-29 18:33:10
210,Antalaha,-14.9003,50.2788,71.89,84,4,6.22,MG,2021-05-29 18:33:11
211,Vostok,46.4856,135.8833,42.31,91,100,2.91,RU,2021-05-29 18:33:11
212,Bandarbeyla,9.4942,50.8122,79.63,85,41,27.2,SO,2021-05-29 18:30:35
213,Aykhal,66.0,111.5,49.96,63,19,8.12,RU,2021-05-29 18:33:12
214,Alofi,-19.0595,-169.9187,73.29,100,94,3.44,NU,2021-05-29 18:30:46
215,Bonavista,48.6499,-53.1147,59.0,41,6,3.44,CA,2021-05-29 18:33:12
216,Clyde River,70.4692,-68.5914,32.23,69,40,3.44,CA,2021-05-29 18:32:09
217,Mahon,39.8885,4.2658,70.36,64,0,5.75,ES,2021-05-29 18:33:13
218,Yar-Sale,66.8333,70.8333,46.63,96,71,9.69,RU,2021-05-29 18:33:13
219,Swellendam,-34.0226,20.4417,53.98,90,5,4.97,ZA,2021-05-29 18:33:13
220,Cidreira,-30.1811,-50.2056,65.25,67,0,12.12,BR,2021-05-29 18:33:14
221,Adrar,20.5022,-10.0711,101.82,8,100,10.31,MR,2021-05-29 18:33:14
222,Victoria,22.2855,114.1577,86.97,88,92,1.99,HK,2021-05-29 18:33:14
223,Marang,5.2056,103.2059,76.91,87,99,5.66,MY,2021-05-29 18:33:15
224,Cayenne,4.9333,-52.3333,86.04,85,75,5.01,GF,2021-05-29 18:33:15
225,Georgetown,5.4112,100.3354,84.13,85,20,3.44,MY,2021-05-29 18:30:15
226,Comodoro Rivadavia,-45.8667,-67.5,49.86,32,0,16.11,AR,2021-05-29 18:33:15
227,Pinhao,-25.6956,-51.6597,70.25,69,21,7.34,BR,2021-05-29 18:33:16
228,Santa Vitoria Do Palmar,-33.5189,-53.3681,54.61,59,95,16.75,BR,2021-05-29 18:33:16
229,Chapais,49.7834,-74.8492,53.6,32,1,8.05,CA,2021-05-29 18:32:40
230,Dunedin,-45.8742,170.5036,50.0,96,100,11.99,NZ,2021-05-29 18:32:27
231,Sechura,-5.5569,-80.8222,77.18,65,56,11.27,PE,2021-05-29 18:33:17
232,Cuervos,32.6314,-114.8556,95.0,9,1,10.36,MX,2021-05-29 18:33:17
233,Richards Bay,-28.783,32.0377,65.57,82,8,5.17,ZA,2021-05-29 18:33:17
234,Kangaatsiaq,68.3065,-53.4641,37.56,79,100,17.87,GL,2021-05-29 18:33:18
235,Airai,-8.9266,125.4092,55.87,91,71,2.35,TL,2021-05-29 18:33:18
236,Bam,29.106,58.357,87.31,11,3,4.52,IR,2021-05-29 18:33:19
237,Barranca,-10.75,-77.7667,67.33,79,89,9.93,PE,2021-05-29 18:33:19
238,Kingman,35.1894,-114.053,87.01,10,1,11.5,US,2021-05-29 18:33:20
239,Meulaboh,4.1363,96.1285,77.29,86,100,2.95,ID,2021-05-29 18:33:20
240,Quatre Cocos,-20.2078,57.7625,75.31,85,21,5.32,MU,2021-05-29 18:33:20
241,Yotoco,3.8605,-76.3836,82.54,74,94,3.8,CO,2021-05-29 18:33:21
242,Roma,43.2128,-75.4557,60.01,58,1,12.66,US,2021-05-29 18:33:21
243,Goderich,43.7501,-81.7165,63.03,58,47,18.41,CA,2021-05-29 18:33:22
244,Kagoro,9.6,8.3833,75.6,71,100,1.28,NG,2021-05-29 18:33:22
245,Rio Gallegos,-51.6226,-69.2181,37.45,52,75,16.11,AR,2021-05-29 18:33:22
246,Cherdyn,60.403,56.4787,55.4,92,100,2.51,RU,2021-05-29 18:33:23
247,Vanimo,-2.6741,141.3028,78.04,89,100,3.67,PG,2021-05-29 18:33:23
248,Aleksandrov Gay,50.147,48.5704,63.63,93,92,2.19,RU,2021-05-29 18:33:24
249,Gushikawa,26.3544,127.8686,71.6,94,75,9.22,JP,2021-05-29 18:33:24
250,Conceicao Do Araguaia,-8.2578,-49.2647,93.33,38,0,4.59,BR,2021-05-29 18:33:24
251,Srednekolymsk,67.45,153.6833,51.19,45,8,14.27,RU,2021-05-29 18:33:25
252,Road Town,18.4167,-64.6167,86.0,66,40,8.05,VG,2021-05-29 18:31:49
253,Barrow,71.2906,-156.7887,30.22,80,90,9.22,US,2021-05-29 18:33:25
254,Maneadero,31.7167,-116.5667,68.18,80,7,4.0,MX,2021-05-29 18:33:26
255,Rosetta,31.4044,30.4164,73.22,77,0,5.55,EG,2021-05-29 18:33:26
256,Norman Wells,65.282,-126.8329,35.6,87,90,8.05,CA,2021-05-29 18:33:26
257,Badarwas,24.9667,77.5667,89.13,40,100,3.44,IN,2021-05-29 18:33:27
258,Sheltozero,61.3667,35.3667,39.42,73,12,9.71,RU,2021-05-29 18:33:27
259,Luderitz,-26.6481,15.1594,61.3,67,47,17.29,NA,2021-05-29 18:33:28
260,Hamilton,39.1834,-84.5333,54.79,79,90,3.0,US,2021-05-29 18:32:30
261,Kaitangata,-46.2817,169.8464,49.33,93,100,10.92,NZ,2021-05-29 18:31:48
262,Seoul,37.5683,126.9778,54.36,97,0,2.73,KR,2021-05-29 18:33:16
263,Ouango,4.3133,22.5552,72.23,94,100,0.92,CF,2021-05-29 18:33:28
264,San Vicente De Canete,-13.0751,-76.3835,68.95,75,32,8.59,PE,2021-05-29 18:33:29
265,Tammisaari,59.9736,23.4339,53.01,46,12,4.29,FI,2021-05-29 18:33:29
266,Sao Filipe,14.8961,-24.4956,73.42,80,8,11.18,CV,2021-05-29 18:33:29
267,Tigil,57.8,158.6667,39.61,75,99,3.58,RU,2021-05-29 18:33:30
268,Mikhaylov,54.2292,39.0186,63.03,96,100,15.01,RU,2021-05-29 18:33:30
269,Tuban,-6.8976,112.0649,77.47,87,100,6.29,ID,2021-05-29 18:33:30
270,Huntsville,34.7304,-86.5861,68.0,63,90,8.05,US,2021-05-29 18:33:31
271,Jumla,29.2747,82.1838,57.27,86,100,2.42,NP,2021-05-29 18:33:31
272,Verkhnevilyuysk,63.4453,120.3167,50.52,63,68,3.0,RU,2021-05-29 18:33:32
273,Cukai,4.25,103.4167,75.34,89,73,5.21,MY,2021-05-29 18:33:32
274,Puerto Carreno,6.189,-67.4859,87.44,61,83,5.59,CO,2021-05-29 18:30:06
275,Ninotsminda,41.2646,43.5916,54.05,57,0,7.7,GE,2021-05-29 18:33:32
276,Nuuk,64.1835,-51.7216,46.4,57,40,14.97,GL,2021-05-29 18:33:33
277,Diego De Almagro,-26.3667,-70.05,79.7,18,0,10.69,CL,2021-05-29 18:33:33
278,Bhainsdehi,21.6467,77.6325,84.76,47,85,4.81,IN,2021-05-29 18:33:34
279,Rozmital Pod Tremsinem,49.602,13.8643,54.0,100,5,7.56,CZ,2021-05-29 18:33:34
280,Srandakan,-7.9386,110.2506,60.73,88,100,3.47,ID,2021-05-29 18:33:34
281,Balabac,7.9868,117.0645,81.32,82,100,6.85,PH,2021-05-29 18:33:35
282,Chernyshevskiy,63.0128,112.4714,47.68,85,25,4.03,RU,2021-05-29 18:33:35
283,Atlantic City,39.3643,-74.4229,52.99,90,90,29.21,US,2021-05-29 18:30:11
284,Farah,32.5,62.5,85.39,15,0,4.43,AF,2021-05-29 18:33:35
285,Dillon,34.4166,-79.3712,88.2,49,100,9.69,US,2021-05-29 18:33:23
286,Lavrentiya,65.5833,-171.0,31.14,81,5,8.79,RU,2021-05-29 18:33:36
287,Kedrovyy,56.1667,91.8167,32.41,71,63,2.93,RU,2021-05-29 18:33:36
288,Berlevag,70.8578,29.0864,40.28,81,99,13.0,NO,2021-05-29 18:33:37
289,Bara,10.3744,10.7288,87.4,45,100,10.16,NG,2021-05-29 18:33:37
290,Atambua,-9.1061,124.8925,69.96,86,95,4.9,ID,2021-05-29 18:33:37
291,Melbourne,28.0836,-80.6081,94.05,61,1,12.66,US,2021-05-29 18:30:42
292,Worland,44.0169,-107.9554,65.68,39,1,3.0,US,2021-05-29 18:33:38
293,Moron,-34.6534,-58.6198,55.9,36,0,10.83,AR,2021-05-29 18:33:12
294,Manosque,43.8288,5.7869,74.62,69,39,6.89,FR,2021-05-29 18:33:39
295,Constitucion,-35.3333,-72.4167,58.39,62,99,13.76,CL,2021-05-29 18:33:39
296,Geraldton,-28.7667,114.6,64.13,82,40,14.09,AU,2021-05-29 18:33:39
297,Lata,40.1629,-8.3327,66.34,73,0,5.14,PT,2021-05-29 18:33:40
298,Nome,64.5011,-165.4064,48.16,34,1,16.11,US,2021-05-29 18:33:40
299,Puri,19.8,85.85,88.0,89,75,13.78,IN,2021-05-29 18:33:41
300,Malanje,-9.5402,16.341,65.5,50,7,2.37,AO,2021-05-29 18:33:41
301,Cehegin,38.0924,-1.7985,79.0,43,44,8.01,ES,2021-05-29 18:33:42
302,Mehamn,71.0357,27.8492,40.89,82,98,14.9,NO,2021-05-29 18:32:18
303,Henties Bay,-22.116,14.2845,58.86,78,88,7.74,NA,2021-05-29 18:33:42
304,Payo,-3.7508,103.6372,72.64,98,100,1.39,ID,2021-05-29 18:33:42
305,Sitka,57.0531,-135.33,51.69,71,90,8.05,US,2021-05-29 18:33:43
306,Pangnirtung,66.1451,-65.7125,35.6,69,40,13.8,CA,2021-05-29 18:33:43
307,Singkang,2.1006,102.7994,80.49,88,100,2.46,MY,2021-05-29 18:33:44
308,Camacha,33.0833,-16.3333,66.96,73,40,18.41,PT,2021-05-29 18:33:44
309,Lenger,42.183,69.8839,72.84,52,100,5.39,KZ,2021-05-29 18:33:44
310,Nishihara,26.1842,127.7558,70.88,94,75,14.92,JP,2021-05-29 18:33:45
311,Ferry Pass,30.5102,-87.2125,89.01,48,1,8.05,US,2021-05-29 18:33:45
312,Ust-Kan,50.9276,84.761,39.0,90,6,1.66,RU,2021-05-29 18:33:46
313,Ixtapa,20.7,-105.2,83.43,65,1,12.66,MX,2021-05-29 18:30:06
314,Port Blair,11.6667,92.75,81.05,83,100,6.33,IN,2021-05-29 18:33:47
315,Bairiki,1.3292,172.9752,82.4,78,75,10.36,KI,2021-05-29 18:33:47
316,Ipira,-12.1583,-39.7372,83.35,41,100,10.94,BR,2021-05-29 18:32:14
317,Caucaia,-3.7361,-38.6531,85.95,70,20,6.4,BR,2021-05-29 18:33:09
318,Vicuna,-30.0319,-70.7081,60.8,72,0,12.66,CL,2021-05-29 18:33:48
319,Altamont,42.2068,-121.7372,74.79,26,1,1.99,US,2021-05-29 18:33:48
320,Ariquemes,-9.9133,-63.0408,91.29,43,16,2.01,BR,2021-05-29 18:33:49
321,Souillac,-20.5167,57.5167,75.58,94,40,6.44,MU,2021-05-29 18:33:50
322,Kirakira,-10.4544,161.9205,76.39,93,100,2.93,SB,2021-05-29 18:33:51
323,Sembabule,-0.0772,31.4567,64.8,86,25,5.93,UG,2021-05-29 18:33:51
324,Half Moon Bay,37.4636,-122.4286,71.49,80,90,11.5,US,2021-05-29 18:30:10
325,Angoche,-16.2325,39.9086,74.98,73,18,10.18,MZ,2021-05-29 18:33:52
326,Am Timan,11.0297,20.2827,95.4,23,28,3.47,TD,2021-05-29 18:33:53
327,Coahuayana,18.7333,-103.6833,87.8,35,40,11.5,MX,2021-05-29 18:33:54
328,Los Llanos De Aridane,28.6585,-17.9182,71.6,64,20,12.66,ES,2021-05-29 18:33:55
329,San Cristobal,7.7669,-72.225,71.78,75,64,4.47,VE,2021-05-29 18:33:55
330,Fonte Boa,-2.4959,-66.2662,90.48,51,34,3.44,BR,2021-05-29 18:33:55
331,Birao,10.2849,22.7882,96.15,21,99,8.01,CF,2021-05-29 18:33:56
332,Sobolevo,54.4299,31.8996,52.41,90,100,9.93,RU,2021-05-29 18:33:56
333,Nadym,65.5333,72.5167,54.64,86,100,20.58,RU,2021-05-29 18:33:56
334,Kavaratti,10.5669,72.642,83.21,75,84,15.99,IN,2021-05-29 18:30:52
335,Morondava,-20.2833,44.2833,72.25,74,0,5.01,MG,2021-05-29 18:33:57
336,Atbasar,51.8,68.3333,62.89,34,65,11.54,KZ,2021-05-29 18:33:56
337,Palauig,15.435,119.9045,83.37,75,84,3.71,PH,2021-05-29 18:33:46
338,Kabare,-2.4683,28.8242,62.31,94,59,1.25,CD,2021-05-29 18:33:58
339,Susangerd,31.5608,48.1831,100.42,7,0,11.21,IR,2021-05-29 18:33:58
340,Vilhena,-12.7406,-60.1458,88.02,40,20,3.44,BR,2021-05-29 18:32:05
341,Eydhafushi,5.1033,73.0708,83.35,74,91,21.68,MV,2021-05-29 18:33:59
342,Hambantota,6.1241,81.1185,79.14,94,20,19.3,LK,2021-05-29 18:30:22
343,East London,-33.0153,27.9116,63.54,63,0,14.97,ZA,2021-05-29 18:33:59
344,Marks,51.7111,46.7486,67.24,92,100,7.67,RU,2021-05-29 18:31:17
345,Cobija,-11.0267,-68.7692,91.4,58,75,6.91,BO,2021-05-29 18:34:00
346,Katangli,51.7102,143.2326,34.83,96,100,13.22,RU,2021-05-29 18:34:00
347,Pevek,69.7008,170.3133,41.47,60,0,10.89,RU,2021-05-29 18:34:01
348,Chabahar,25.2919,60.643,86.9,66,1,8.66,IR,2021-05-29 18:34:01
349,Manaus,-3.1019,-60.025,88.3,66,40,3.44,BR,2021-05-29 18:31:04
350,Kavali,14.9167,79.9833,88.84,59,99,12.33,IN,2021-05-29 18:34:02
351,Chuy,-33.6971,-53.4616,54.63,57,35,17.38,UY,2021-05-29 18:34:02
352,Vikulovo,56.8167,70.6107,61.72,61,1,8.72,RU,2021-05-29 18:34:03
353,Sivas,39.7916,37.0019,54.23,76,75,11.5,TR,2021-05-29 18:34:03
354,Barcelos,41.5388,-8.6151,75.0,82,0,10.36,PT,2021-05-29 18:30:20
355,Praya,14.9215,-23.5087,78.8,57,20,17.27,CV,2021-05-29 18:34:03
356,Yumen,40.2833,97.2,67.03,32,0,4.92,CN,2021-05-29 18:34:04
357,Bathsheba,13.2167,-59.5167,86.0,54,40,19.57,BB,2021-05-29 18:34:04
358,Savinka,50.0785,47.0994,66.83,81,28,8.5,RU,2021-05-29 18:34:05
359,Kamenka,51.3223,42.7678,63.68,79,95,7.23,RU,2021-05-29 18:33:30
360,Huarmey,-10.0681,-78.1522,69.31,79,41,10.83,PE,2021-05-29 18:34:05
361,Esperance,-33.8667,121.9,60.64,84,100,19.28,AU,2021-05-29 18:30:44
362,Waipawa,-41.4122,175.5153,50.0,100,75,4.61,NZ,2021-05-29 18:34:06
363,Amposta,40.7131,0.581,79.54,61,0,8.61,ES,2021-05-29 18:34:06
364,Isabela,6.7085,121.9711,75.25,81,98,4.41,PH,2021-05-29 18:34:07
365,Puerto Escondido,15.85,-97.0667,88.63,70,75,5.75,MX,2021-05-29 18:34:07
366,Luena,-11.7833,19.9167,57.49,39,8,3.38,AO,2021-05-29 18:34:07
367,Namatanai,-3.6667,152.4333,79.32,84,100,6.33,PG,2021-05-29 18:30:19
368,Bansang,13.4333,-14.65,107.6,16,0,2.3,GM,2021-05-29 18:34:08
369,Nalut,30.3333,10.85,97.14,9,98,8.61,LY,2021-05-29 18:34:08
370,Rock Springs,41.5875,-109.2029,70.0,12,1,11.5,US,2021-05-29 18:31:56
371,Lasa,46.6166,10.7002,69.8,54,40,6.91,IT,2021-05-29 18:34:09
372,Fairbanks,64.8378,-147.7164,45.0,39,90,13.8,US,2021-05-29 18:34:09
373,Tasiilaq,65.6145,-37.6368,37.56,95,100,16.35,GL,2021-05-29 18:30:23
374,Turbat,26.0023,63.044,91.74,39,3,5.84,PK,2021-05-29 18:34:10
375,Marienburg,54.0359,19.0266,52.88,93,1,8.66,PL,2021-05-29 18:34:11
376,Harindanga,22.0383,88.3214,84.18,83,13,10.78,IN,2021-05-29 18:34:11
377,Bantogon,6.5333,124.0333,78.4,80,93,3.58,PH,2021-05-29 18:34:11
378,Codrington,-38.2667,141.9667,39.9,94,3,6.49,AU,2021-05-29 18:34:12
379,Fort Nelson,58.8053,-122.7002,62.6,29,75,10.36,CA,2021-05-29 18:34:12
380,Yartsevo,55.0667,32.6964,50.76,92,90,7.9,RU,2021-05-29 18:34:13
381,Opuwo,-18.0607,13.84,64.99,26,0,7.52,NA,2021-05-29 18:34:13
382,Maragogi,-9.0122,-35.2225,79.57,70,18,7.58,BR,2021-05-29 18:32:35
383,Lagoa,39.05,-27.9833,63.9,73,17,8.01,PT,2021-05-29 18:31:39
384,Santa Maria,-29.6842,-53.8069,69.1,40,0,8.79,BR,2021-05-29 18:34:14
385,Ballina,-28.8667,153.5667,57.16,72,75,10.36,AU,2021-05-29 18:34:14
386,Biak,-0.9131,122.8766,76.51,85,51,5.55,ID,2021-05-29 18:34:14
387,Zhengjiatun,43.5064,123.5064,58.98,40,100,6.85,CN,2021-05-29 18:34:15
388,Marrakesh,31.6315,-8.0083,82.47,44,40,9.22,MA,2021-05-29 18:31:46
389,Manggar,-2.8833,108.2667,78.46,84,96,3.36,ID,2021-05-29 18:34:16
390,Balkanabat,39.5108,54.3671,91.47,23,0,6.42,TM,2021-05-29 18:34:16
391,Korla,41.7597,86.1469,76.03,31,100,20.58,CN,2021-05-29 18:34:17
392,Itoman,26.1247,127.6694,71.62,94,75,8.05,JP,2021-05-29 18:34:17
393,Belmonte,-15.8631,-38.8828,81.1,72,100,6.22,BR,2021-05-29 18:30:55
394,Haapiti,-17.5667,-149.8667,80.33,72,96,12.3,PF,2021-05-29 18:34:17
395,Annaberg-Buchholz,50.5795,13.0063,52.34,99,65,4.68,DE,2021-05-29 18:34:18
396,Araripe,-7.2125,-40.0461,85.42,33,77,8.1,BR,2021-05-29 18:34:18
397,Kingseat,56.0974,-3.4084,63.34,88,75,1.99,GB,2021-05-29 18:34:18
398,La Ronge,55.1001,-105.2842,46.65,76,90,12.66,CA,2021-05-29 18:34:19
399,Gimbi,9.1667,35.8333,58.91,71,6,3.02,ET,2021-05-29 18:34:19
400,Necochea,-38.5473,-58.7368,51.04,52,61,22.08,AR,2021-05-29 18:34:19
401,Paamiut,61.994,-49.6678,35.89,93,100,8.1,GL,2021-05-29 18:34:20
402,Pavlodar,52.3,76.95,57.0,41,0,9.98,KZ,2021-05-29 18:31:48
403,Tsaratanana,-16.7833,47.65,73.47,67,57,3.8,MG,2021-05-29 18:34:20
404,Pasni,25.2631,63.471,85.21,77,4,11.36,PK,2021-05-29 18:34:21
405,Lachute,45.6501,-74.3325,64.35,31,1,9.1,CA,2021-05-29 18:34:21
406,Anastacio,-20.4836,-55.8069,94.53,25,100,10.65,BR,2021-05-29 18:34:21
407,Pacific Grove,36.6177,-121.9166,72.77,86,90,5.01,US,2021-05-29 18:34:21
408,Abu Dhabi,24.4667,54.3667,89.71,70,0,7.09,AE,2021-05-29 18:30:27
409,Nargana,9.4428,-78.5906,81.25,78,50,4.43,PA,2021-05-29 18:34:22
410,Takoradi,4.8845,-1.7554,80.83,83,98,6.98,GH,2021-05-29 18:30:04
411,Kwakoa,-3.7667,37.7167,70.36,72,100,5.46,TZ,2021-05-29 18:34:22
412,Havoysund,70.9963,24.6622,41.88,92,100,23.67,NO,2021-05-29 18:34:23
413,Mahabaleshwar,17.9167,73.6667,65.8,87,100,1.66,IN,2021-05-29 18:34:23
414,Trzebiatow,54.0615,15.2648,53.6,62,20,16.11,PL,2021-05-29 18:34:24
415,Gurun,5.8172,100.4738,83.97,92,100,2.86,MY,2021-05-29 18:34:24
416,Asau,46.4333,26.4,58.39,94,93,0.6,RO,2021-05-29 18:34:25
417,Salvador,13.8333,-88.9167,86.05,39,79,0.22,SV,2021-05-29 18:30:18
418,Kieta,-6.2167,155.6333,76.68,90,97,3.11,PG,2021-05-29 18:34:25
419,Angoram,-4.0625,144.0661,73.72,99,88,2.13,PG,2021-05-29 18:34:25
420,Beringovskiy,63.05,179.3167,31.3,83,7,10.36,RU,2021-05-29 18:34:26
421,Mandaon,12.2259,123.2842,81.52,82,100,2.51,PH,2021-05-29 18:34:26
422,Kenai,60.5544,-151.2583,50.02,93,90,9.22,US,2021-05-29 18:34:27
423,Dingle,10.9995,122.6711,77.83,91,96,2.17,PH,2021-05-29 18:32:02
424,Bubaque,11.2833,-15.8333,79.34,69,64,18.61,GW,2021-05-29 18:34:27
425,Saint George,37.1041,-113.5841,89.64,13,1,1.01,US,2021-05-29 18:31:02
426,Mandapam,9.2833,79.1167,85.33,74,76,13.65,IN,2021-05-29 18:34:28
427,Sioux Lookout,50.1001,-91.917,62.98,31,75,10.36,CA,2021-05-29 18:34:28
428,Moose Factory,51.2585,-80.6094,62.6,36,1,5.75,CA,2021-05-29 18:34:29
429,Sur,22.5667,59.5289,89.06,52,9,11.36,OM,2021-05-29 18:34:29
430,Westport,41.1415,-73.3579,51.84,90,90,1.01,US,2021-05-29 18:30:57
431,Krasnoselkup,65.7,82.4667,38.25,52,17,10.22,RU,2021-05-29 18:34:30
432,Arica,-18.475,-70.3042,72.95,64,0,5.46,CL,2021-05-29 18:31:40
433,Kysyl-Syr,63.8986,122.7617,53.17,60,58,1.19,RU,2021-05-29 18:34:31
434,Nizhniy Tsasuchey,50.5167,115.1333,50.49,44,98,13.96,RU,2021-05-29 18:34:31
435,Mortka,59.3322,66.0214,59.11,67,66,6.4,RU,2021-05-29 18:34:32
436,Aitape,-3.1374,142.3475,78.6,87,98,4.18,PG,2021-05-29 18:34:33
437,Taubate,-23.0264,-45.5553,83.7,57,40,10.36,BR,2021-05-29 18:34:33
438,Cahors,44.4167,1.3333,71.1,76,100,7.65,FR,2021-05-29 18:34:33
439,Quibdo,5.6947,-76.6611,86.74,69,64,5.12,CO,2021-05-29 18:34:34
440,Ntcheu,-14.8203,34.6359,57.72,54,0,1.25,MW,2021-05-29 18:34:34
441,Waddan,29.1614,16.139,94.84,11,56,11.99,LY,2021-05-29 18:34:35
442,Flinders,-34.5833,150.8552,54.21,71,92,4.0,AU,2021-05-29 18:34:35
443,North Platte,41.1239,-100.7654,57.09,83,90,3.0,US,2021-05-29 18:34:36
444,Ledyard,41.4398,-72.0142,49.51,86,90,5.01,US,2021-05-29 18:34:36
445,Nha Trang,12.25,109.1833,78.8,85,88,5.26,VN,2021-05-29 18:32:55
446,Mayang Imphal,24.6167,93.8833,72.05,85,78,2.28,IN,2021-05-29 18:34:37
447,Pansemal,21.65,74.7,84.87,64,99,13.98,IN,2021-05-29 18:34:37
448,Gazanjyk,39.2446,55.5154,95.76,13,0,5.84,TM,2021-05-29 18:34:38
449,Shiyan,32.6475,110.7781,69.12,82,100,4.38,CN,2021-05-29 18:34:38
450,Neiafu,-18.65,-173.9833,70.48,100,40,0.0,TO,2021-05-29 18:34:39
451,Soubre,5.7856,-6.6083,79.25,82,94,4.47,CI,2021-05-29 18:34:39
452,Zeya,53.75,127.2667,45.72,91,100,3.22,RU,2021-05-29 18:34:40
453,Lompoc,34.6391,-120.4579,64.85,74,90,13.8,US,2021-05-29 18:32:38
454,Esmeraldas,-19.7625,-44.3139,87.04,43,100,3.18,BR,2021-05-29 18:34:40
455,Helena,46.5927,-112.0361,63.0,33,20,4.61,US,2021-05-29 18:34:41
456,Gorontalo,0.5412,123.0595,75.22,94,87,1.54,ID,2021-05-29 18:34:41
457,Linhares,-19.3911,-40.0722,84.45,55,9,8.52,BR,2021-05-29 18:34:41
458,Mugan,35.9404,101.3842,53.8,50,4,5.19,CN,2021-05-29 18:34:42
459,Abu Samrah,35.3029,37.1841,69.71,52,0,8.12,SY,2021-05-29 18:34:42
460,Kreminna,49.0495,38.2179,62.28,91,100,4.7,UA,2021-05-29 18:34:42
461,Iisalmi,63.5592,27.1907,48.2,43,0,6.91,FI,2021-05-29 18:34:43
462,Islamkot,24.6997,70.177,82.56,78,8,16.58,PK,2021-05-29 18:34:43
463,Belyy Yar,53.6039,91.3903,42.69,93,74,2.68,RU,2021-05-29 18:34:44
464,Severnyy,50.677,36.5532,66.24,77,75,2.24,RU,2021-05-29 18:34:44
465,Lazdijai,54.2333,23.5167,48.2,92,12,7.54,LT,2021-05-29 18:34:45
466,Saint Anthony,45.0205,-93.218,64.0,34,1,6.91,US,2021-05-29 18:34:15
467,Udachnyy,66.4167,112.4,50.02,65,2,6.8,RU,2021-05-29 18:34:45
468,Shingu,33.7333,135.9833,60.91,69,100,4.34,JP,2021-05-29 18:34:45
469,Zhigansk,66.7697,123.3711,45.03,68,3,5.41,RU,2021-05-29 18:34:46
470,Hatillo,18.4863,-66.8254,82.0,83,90,5.75,PR,2021-05-29 18:34:46
471,Olinda,-8.0089,-34.8553,80.33,65,20,11.83,BR,2021-05-29 18:33:40
472,Shubarkuduk,49.1447,56.4872,70.11,59,0,16.17,KZ,2021-05-29 18:34:47
473,Zhongxing,33.7039,118.6792,70.77,81,34,7.27,CN,2021-05-29 18:34:47
474,Nassau,40.7507,-73.5829,51.73,84,90,5.99,US,2021-05-29 18:33:28
475,Jiangyou,31.7667,104.7167,68.23,79,97,1.43,CN,2021-05-29 18:34:47
476,Sechelt,49.4664,-123.7694,64.99,87,16,12.66,CA,2021-05-29 18:33:57
477,Agadir,30.4202,-9.5982,77.45,65,100,12.19,MA,2021-05-29 18:32:27
478,Svetlyy,54.675,20.1347,51.85,90,5,10.13,RU,2021-05-29 18:34:48
479,Batemans Bay,-35.7167,150.1833,50.92,70,75,8.59,AU,2021-05-29 18:30:10
480,Vardo,70.3705,31.1107,39.56,76,44,13.51,NO,2021-05-29 18:34:48
481,Wilhelmsburg,48.1057,15.6054,58.3,82,12,1.34,AT,2021-05-29 18:34:49
482,Jacareacanga,-6.2222,-57.7528,94.5,33,17,3.11,BR,2021-05-29 18:34:49
483,Pontes E Lacerda,-15.2261,-59.3353,93.7,28,82,7.65,BR,2021-05-29 18:34:49
484,Kahului,20.8947,-156.47,79.97,68,20,4.61,US,2021-05-29 18:30:37
485,Bogorodskoye,56.55,37.8833,47.05,88,100,12.73,RU,2021-05-29 18:34:50
486,Mirabad,30.4362,61.8383,92.01,13,0,11.07,AF,2021-05-29 18:34:50
487,Taoudenni,22.6783,-3.9836,106.99,6,27,10.49,ML,2021-05-29 18:32:41
488,Guerrero Negro,27.9769,-114.0611,67.77,61,68,17.63,MX,2021-05-29 18:34:50
489,Nanortalik,60.1432,-45.2371,37.0,87,100,7.63,GL,2021-05-29 18:34:51
490,Maroantsetra,-15.4333,49.7333,73.83,84,49,1.34,MG,2021-05-29 18:34:51
491,Aktash,50.3,87.7333,30.52,84,0,4.18,RU,2021-05-29 18:34:52
492,Nelson Bay,-32.7167,152.15,51.01,93,90,9.22,AU,2021-05-29 18:34:52
493,Balyaga,51.1507,108.921,34.74,85,55,0.6,RU,2021-05-29 18:34:53
494,Havre-Saint-Pierre,50.2334,-63.5986,52.16,54,20,21.85,CA,2021-05-29 18:34:53
495,Ahuimanu,21.4447,-157.8378,79.0,69,20,10.36,US,2021-05-29 18:34:54
496,San Ramon,37.7799,-121.978,69.01,59,20,11.5,US,2021-05-29 18:33:31
497,Ust-Nera,64.5667,143.2,40.82,100,100,3.56,RU,2021-05-29 18:34:54
498,Coyah,9.75,-13.4167,85.15,73,89,4.72,GN,2021-05-29 18:34:55
499,Bogalusa,30.791,-89.8487,84.76,58,40,4.61,US,2021-05-29 18:34:55
500,Egvekinot,66.3167,-179.1667,35.26,55,24,6.62,RU,2021-05-29 18:34:55
501,Dicabisagan,17.0818,122.4157,79.39,86,92,4.25,PH,2021-05-29 18:34:56
502,Khorramshahr,30.4397,48.1664,96.75,22,0,0.0,IR,2021-05-29 18:34:56
503,Ipixuna,-1.7625,-48.8043,85.95,71,97,3.02,BR,2021-05-29 18:34:56
504,Wawa,9.9022,4.4192,90.01,42,46,3.53,NG,2021-05-29 18:34:57
505,Gaziantep,37.0594,37.3825,67.93,56,0,10.4,TR,2021-05-29 18:34:57
506,Liverpool,53.4106,-2.9779,67.95,73,24,1.99,GB,2021-05-29 18:34:58
507,San Quintin,30.4833,-115.95,65.7,66,3,19.77,MX,2021-05-29 18:34:58
508,Gondar,12.6,37.4667,71.02,22,45,17.43,ET,2021-05-29 18:33:27
509,Evensk,61.95,159.2333,40.89,77,100,3.02,RU,2021-05-29 18:34:58
510,Mao,39.8885,4.2658,70.36,64,0,5.75,ES,2021-05-29 18:33:13
511,De Aar,-30.6497,24.0123,49.64,47,99,11.48,ZA,2021-05-29 18:34:59
512,Schwandorf,49.3262,12.1093,59.88,72,6,6.8,DE,2021-05-29 18:34:59
513,Tshikapa,-6.4167,20.8,78.24,42,90,2.62,CD,2021-05-29 18:35:00
514,Kununurra,-15.7667,128.7333,58.98,82,100,2.3,AU,2021-05-29 18:35:00
515,Ardakan,32.31,54.0175,89.6,10,0,6.91,IR,2021-05-29 18:35:01
516,Llangefni,53.2556,-4.3106,61.0,77,90,6.91,GB,2021-05-29 18:35:01
517,Matara,5.9485,80.5353,78.98,87,26,13.49,LK,2021-05-29 18:34:31
518,Kailua,21.4022,-157.7394,81.07,69,20,10.36,US,2021-05-29 18:35:02
519,Petatlan,17.5167,-101.2667,91.2,47,100,7.81,MX,2021-05-29 18:35:02
520,Arman,59.7,150.1667,36.28,98,100,2.91,RU,2021-05-29 18:32:13
521,Mujiayingzi,42.1167,118.7833,58.28,41,100,5.99,CN,2021-05-29 18:35:02
522,Wanning,18.8003,110.3967,81.09,89,100,11.34,CN,2021-05-29 18:35:03
523,Chaman,30.9236,66.4512,80.31,14,0,3.15,PK,2021-05-29 18:35:04
524,Kaa-Khem,51.6833,94.7333,41.86,65,34,6.04,RU,2021-05-29 18:35:04
525,Skiathos,39.1623,23.4909,71.69,72,59,7.0,GR,2021-05-29 18:35:05
526,Roebourne,-20.7833,117.1333,73.76,71,100,4.94,AU,2021-05-29 18:31:02
527,Alekseyevsk,57.8406,108.3492,36.0,87,100,2.66,RU,2021-05-29 18:35:05
528,Lodwar,3.1191,35.5973,87.31,38,8,14.81,KE,2021-05-29 18:35:06
529,Paciran,-6.8767,112.3761,77.9,86,99,4.83,ID,2021-05-29 18:35:06
530,Dovolnoye,54.4958,79.6671,57.58,47,100,8.23,RU,2021-05-29 18:35:06
531,Kafue,-15.7691,28.1814,57.06,38,0,3.94,ZM,2021-05-29 18:35:06
532,Marigot,18.0667,-63.0833,86.22,67,75,16.11,MF,2021-05-29 18:35:07
533,Puerto Del Rosario,28.5004,-13.8627,73.08,73,20,10.36,ES,2021-05-29 18:35:07
534,Hasaki,35.7333,140.8333,66.6,77,98,10.07,JP,2021-05-29 18:32:34
535,Bonthe,7.5264,-12.505,82.67,77,29,7.78,SL,2021-05-29 18:35:08
536,Mitchell,43.7094,-98.0298,56.1,70,90,8.99,US,2021-05-29 18:34:30
537,Ambon,-3.6954,128.1814,79.65,82,100,5.95,ID,2021-05-29 18:35:08
538,Taree,-31.9,152.4667,51.73,87,75,8.05,AU,2021-05-29 18:35:08
539,Port Hedland,-20.3167,118.5667,69.85,78,99,6.91,AU,2021-05-29 18:35:09
540,Wewak,-3.5534,143.6268,79.05,89,94,7.36,PG,2021-05-29 18:35:09
541,Eenhana,-17.4667,16.3333,65.95,24,0,4.5,NA,2021-05-29 18:35:10
542,Naze,28.3667,129.4833,65.08,88,100,3.74,JP,2021-05-29 18:35:10
543,Flin Flon,54.7682,-101.865,48.2,93,90,13.8,CA,2021-05-29 18:35:10
544,Nouadhibou,20.931,-17.0347,68.0,83,93,18.41,MR,2021-05-29 18:35:11
545,Burnie,-41.0667,145.9167,38.95,78,11,4.05,AU,2021-05-29 18:35:12
546,Jurm,36.8648,70.8342,65.7,57,0,1.74,AF,2021-05-29 18:35:12
547,Mosquera,4.7059,-74.2302,56.95,94,100,3.56,CO,2021-05-29 18:35:12
548,Dasoguz,41.8363,59.9666,86.11,37,0,9.95,TM,2021-05-29 18:32:14
549,Kudahuvadhoo,2.6708,72.8944,84.07,69,97,20.31,MV,2021-05-29 18:35:13
550,Thinadhoo,0.5333,72.9333,84.18,71,99,19.8,MV,2021-05-29 18:30:41
551,Kropotkin,45.4375,40.5756,62.28,91,100,12.73,RU,2021-05-29 18:35:13
552,Finschhafen,-6.6024,147.8681,78.4,82,71,6.04,PG,2021-05-29 18:35:14
553,Grand Gaube,-20.0064,57.6608,75.6,90,10,3.0,MU,2021-05-29 18:35:14
554,Pasighat,28.0667,95.3333,75.88,94,99,4.0,IN,2021-05-29 18:35:14
555,Mugi,42.2994,47.4208,48.58,82,71,4.68,RU,2021-05-29 18:35:15
556,Assomada,15.1,-23.6833,78.8,57,20,17.27,CV,2021-05-29 18:35:15
557,Visakhapatnam,17.69,83.2093,82.29,78,75,2.3,IN,2021-05-29 18:35:16
558,Santa Isabel Do Rio Negro,-0.4139,-65.0192,83.62,78,86,2.15,BR,2021-05-29 18:35:16
559,Prince Rupert,54.3161,-130.3201,53.69,64,75,4.61,CA,2021-05-29 18:35:16
560,Carauari,-4.8828,-66.8958,84.15,71,95,2.28,BR,2021-05-29 18:35:17
561,Nagato,34.3833,131.2,62.51,64,50,4.63,JP,2021-05-29 18:31:18
562,Carhuamayo,-10.9167,-76.0333,53.65,39,17,7.14,PE,2021-05-29 18:35:18
563,Maloy,61.9353,5.1136,70.0,83,19,5.59,NO,2021-05-29 18:35:18
564,Cockburn Town,21.4612,-71.1419,82.36,69,40,9.22,TC,2021-05-29 18:32:35
