City_ID,City,Lat,Lng,Max Temp,Humidity,Cloudiness,Wind Speed,Country,Date
0,Butaritari,3.0707,172.7902,82.33,81,100,15.86,KI,2021-05-29 16:48:09
1,Talnakh,69.4865,88.3972,29.39,98,94,5.35,RU,2021-05-29 16:48:09
2,Busselton,-33.65,115.3333,54.09,83,86,8.05,AU,2021-05-29 16:48:09
3,Victoria,22.2855,114.1577,86.97,88,100,1.99,HK,2021-05-29 16:47:07
4,Tasiilaq,65.6145,-37.6368,39.36,96,100,13.06,GL,2021-05-29 16:48:10
5,Andenes,69.3143,16.1194,49.06,81,90,16.11,NO,2021-05-29 16:48:10
6,Douglas,41.3,-96.167,60.55,65,1,4.0,US,2021-05-29 16:45:46
7,Porto Walter,-8.2686,-72.7439,91.94,39,80,3.13,BR,2021-05-29 16:48:10
8,Severnyy,50.677,36.5532,68.04,77,75,4.47,RU,2021-05-29 16:48:11
9,Airai,-8.9266,125.4092,56.98,93,87,2.91,TL,2021-05-29 16:48:11
10,Kaoma,-14.7833,24.8,61.92,27,0,4.27,ZM,2021-05-29 16:48:11
11,Bull Savanna,17.8868,-77.5902,81.41,67,9,11.16,JM,2021-05-29 16:48:12
12,Nizhniy Odes,63.6445,54.856,44.85,74,100,2.66,RU,2021-05-29 16:48:12
13,Codrington,-38.2667,141.9667,40.62,92,2,7.0,AU,2021-05-29 16:48:12
14,Hermanus,-34.4187,19.2345,59.9,83,23,5.39,ZA,2021-05-29 16:48:12
15,Rikitea,-23.1203,-134.9692,77.0,85,72,19.01,PF,2021-05-29 16:48:13
16,Ushuaia,-54.8,-68.3,31.62,93,75,16.11,AR,2021-05-29 16:45:08
17,Deniliquin,-35.5333,144.9667,39.99,87,0,3.11,AU,2021-05-29 16:48:13
18,Tuktoyaktuk,69.4541,-133.0374,28.4,80,75,5.75,CA,2021-05-29 16:48:14
19,Bredasdorp,-34.5322,20.0403,58.28,88,8,7.05,ZA,2021-05-29 16:48:14
20,Imbituba,-28.24,-48.6703,73.29,81,75,12.5,BR,2021-05-29 16:44:42
21,Faanui,-16.4833,-151.75,79.12,70,74,3.71,PF,2021-05-29 16:48:14
22,Mikhaylovka,50.06,43.2379,70.7,59,9,5.88,RU,2021-05-29 16:48:14
23,San Borja,-14.8167,-66.85,87.67,50,95,6.44,BO,2021-05-29 16:48:15
24,Turochak,52.2576,87.1224,43.05,92,12,1.9,RU,2021-05-29 16:48:15
25,Punta Arenas,-53.15,-70.9167,37.51,48,75,20.74,CL,2021-05-29 16:48:16
26,Cape Town,-33.9258,18.4232,63.01,68,20,1.99,ZA,2021-05-29 16:48:07
27,Souillac,-20.5167,57.5167,75.58,88,75,5.61,MU,2021-05-29 16:48:16
28,Honavar,14.2833,74.45,80.2,83,23,1.34,IN,2021-05-29 16:48:16
29,Madang,-5.2246,145.7966,78.84,87,97,3.42,PG,2021-05-29 16:48:17
30,Qaanaaq,77.484,-69.3632,32.27,94,36,5.84,GL,2021-05-29 16:48:17
31,Upernavik,72.7868,-56.1549,31.51,94,92,14.76,GL,2021-05-29 16:48:17
32,Cherskiy,68.75,161.3,48.0,52,34,11.65,RU,2021-05-29 16:48:18
33,Dingle,10.9995,122.6711,78.24,90,93,2.68,PH,2021-05-29 16:48:18
34,Kaitangata,-46.2817,169.8464,49.03,94,100,12.26,NZ,2021-05-29 16:48:18
35,Coruripe,-10.1256,-36.1756,81.81,59,53,10.29,BR,2021-05-29 16:48:18
36,Half Moon Bay,37.4636,-122.4286,64.87,85,75,10.36,US,2021-05-29 16:48:19
37,Bluff,-46.6,168.3333,49.8,87,100,19.75,NZ,2021-05-29 16:48:19
38,Surt,31.2089,16.5887,74.17,75,0,12.01,LY,2021-05-29 16:48:19
39,Lorengau,-2.0226,147.2712,82.35,77,93,11.77,PG,2021-05-29 16:48:20
40,Santa Maria Da Vitoria,-13.3947,-44.1886,94.28,24,73,3.83,BR,2021-05-29 16:48:20
41,Ribeira Grande,38.5167,-28.7,66.6,77,75,0.0,PT,2021-05-29 16:48:20
42,Hithadhoo,-0.6,73.0833,83.75,71,66,16.37,MV,2021-05-29 16:48:21
43,Cockburn Town,21.4612,-71.1419,82.36,69,40,9.22,TC,2021-05-29 16:47:01
44,Qaqortoq,60.7167,-46.0333,43.3,80,100,7.54,GL,2021-05-29 16:48:21
45,Kapaa,22.0752,-159.319,70.2,79,90,5.77,US,2021-05-29 16:48:21
46,Georgetown,5.4112,100.3354,84.88,82,20,3.0,MY,2021-05-29 16:48:22
47,Hobart,-42.8794,147.3294,46.26,76,90,1.99,AU,2021-05-29 16:47:56
48,Riyadh,24.6877,46.7219,107.65,9,0,6.91,SA,2021-05-29 16:44:43
49,Beloha,-25.1667,45.05,66.16,74,17,4.27,MG,2021-05-29 16:48:22
50,Obo,5.3998,26.4869,71.11,84,94,3.18,CF,2021-05-29 16:48:23
51,Yelatma,54.9675,41.7508,61.97,93,46,6.73,RU,2021-05-29 16:48:23
52,Barrow,71.2906,-156.7887,30.22,86,90,10.36,US,2021-05-29 16:48:24
53,Lebu,-37.6167,-73.65,53.17,70,100,3.85,CL,2021-05-29 16:48:24
54,Mut,36.6439,33.4389,74.77,56,19,2.3,TR,2021-05-29 16:48:24
55,Ballina,-28.8667,153.5667,58.96,69,90,17.27,AU,2021-05-29 16:48:24
56,Albany,42.6001,-73.9662,48.92,85,100,4.94,US,2021-05-29 16:48:25
57,Valera,9.3178,-70.6036,80.38,80,98,2.46,VE,2021-05-29 16:48:25
58,Avarua,-21.2078,-159.775,71.65,73,20,3.44,CK,2021-05-29 16:48:25
59,Nova Petropolis,-29.3764,-51.1144,64.94,93,98,4.0,BR,2021-05-29 16:48:26
60,Viedma,-40.8135,-62.9967,51.89,40,5,16.93,AR,2021-05-29 16:48:26
61,Jagatsinghapur,20.2667,86.1667,88.23,84,24,9.8,IN,2021-05-29 16:48:26
62,Semnan,35.5729,53.3971,87.33,14,1,4.81,IR,2021-05-29 16:48:26
63,Saskylakh,71.9167,114.0833,29.79,96,16,6.58,RU,2021-05-29 16:48:27
64,Pochutla,15.7432,-96.4661,91.81,46,99,5.77,MX,2021-05-29 16:48:27
65,Babstovo,48.1167,132.4833,51.85,87,74,2.95,RU,2021-05-29 16:48:27
66,Vorukh,39.8494,70.5838,67.41,53,97,7.87,TJ,2021-05-29 16:48:28
67,Vaini,-21.2,-175.2,71.76,100,75,0.0,TO,2021-05-29 16:48:28
68,Bethel,41.3712,-73.414,48.58,89,90,1.99,US,2021-05-29 16:48:28
69,Bengkulu,-3.8004,102.2655,75.7,88,100,4.92,ID,2021-05-29 16:48:29
70,Vestmanna,62.1564,-7.1664,50.92,93,90,6.82,FO,2021-05-29 16:48:29
71,Hobyo,5.3505,48.5268,79.77,80,92,21.83,SO,2021-05-29 16:48:29
72,Buala,-8.145,159.5921,76.73,89,100,4.65,SB,2021-05-29 16:48:30
73,Narsaq,60.9167,-46.05,43.02,74,100,6.4,GL,2021-05-29 16:48:30
74,Nabire,-3.3667,135.4833,77.23,93,100,4.36,ID,2021-05-29 16:48:30
75,Ifanadiana,-21.3,47.6333,62.87,96,14,2.8,MG,2021-05-29 16:48:30
76,Amberley,39.2048,-84.428,52.05,81,90,3.0,US,2021-05-29 16:48:31
77,Leningradskiy,69.3833,178.4167,29.89,80,79,7.7,RU,2021-05-29 16:48:31
78,Sirnak,37.5228,42.4594,65.32,30,42,3.31,TR,2021-05-29 16:48:31
79,New Norfolk,-42.7826,147.0587,45.9,75,44,3.0,AU,2021-05-29 16:48:32
80,Dushanbe,38.5577,68.7797,76.82,38,37,6.71,TJ,2021-05-29 16:47:26
81,Comodoro Rivadavia,-45.8667,-67.5,49.86,32,0,14.97,AR,2021-05-29 16:44:38
82,Port Hardy,50.6996,-127.4199,48.38,87,20,4.61,CA,2021-05-29 16:48:32
83,Ponta Do Sol,32.6667,-17.1,73.13,62,38,4.72,PT,2021-05-29 16:48:32
84,Seinajoki,62.7945,22.8282,56.55,29,0,1.99,FI,2021-05-29 16:44:22
85,Daru,-9.0763,143.2092,76.75,73,96,12.35,PG,2021-05-29 16:48:33
86,Mataura,-46.1927,168.8643,49.48,97,100,3.49,NZ,2021-05-29 16:48:33
87,Hilo,19.7297,-155.09,73.62,85,20,4.61,US,2021-05-29 16:47:01
88,Abu Dhabi,24.4667,54.3667,91.51,58,0,9.42,AE,2021-05-29 16:46:40
89,Mezen,65.8522,44.24,34.05,96,100,15.26,RU,2021-05-29 16:48:34
90,Kholodnyy,62.7167,147.95,34.72,94,100,11.39,RU,2021-05-29 16:48:34
91,Orangeburg,33.4918,-80.8557,83.68,67,90,10.36,US,2021-05-29 16:48:34
92,Zhigansk,66.7697,123.3711,46.36,64,8,2.13,RU,2021-05-29 16:48:34
93,Pangnirtung,66.1451,-65.7125,33.8,75,75,16.11,CA,2021-05-29 16:48:35
94,Albignasego,45.3475,11.8672,73.36,75,75,7.61,IT,2021-05-29 16:48:35
95,Oschatz,51.3,13.1167,62.62,64,86,8.66,DE,2021-05-29 16:48:35
96,Polunochnoye,60.8697,60.4153,56.64,89,97,4.63,RU,2021-05-29 16:48:36
97,Tiksi,71.6872,128.8694,29.8,98,93,8.05,RU,2021-05-29 16:48:36
98,Vanavara,60.34,102.2797,34.14,93,100,5.17,RU,2021-05-29 16:48:36
99,Rawson,-43.3002,-65.1023,48.34,39,0,27.42,AR,2021-05-29 16:48:36
100,Pontes E Lacerda,-15.2261,-59.3353,94.06,28,78,8.39,BR,2021-05-29 16:46:45
101,Yellowknife,62.456,-114.3525,51.33,53,20,1.99,CA,2021-05-29 16:45:09
102,Cabo San Lucas,22.8909,-109.9124,94.8,54,40,4.61,MX,2021-05-29 16:48:37
103,Weligama,5.9667,80.4167,79.09,88,83,12.03,LK,2021-05-29 16:48:37
104,Atuona,-9.8,-139.0333,78.64,71,12,11.01,PF,2021-05-29 16:48:38
105,Namibe,-15.1961,12.1522,75.07,69,9,7.34,AO,2021-05-29 16:48:38
106,Portland,45.5234,-122.6762,65.01,67,20,1.01,US,2021-05-29 16:44:26
107,Catazaja,17.725,-92.0167,92.8,50,47,1.97,MX,2021-05-29 16:48:38
108,Nelson Bay,-32.7167,152.15,53.01,73,99,20.85,AU,2021-05-29 16:48:39
109,Bridlington,54.0831,-0.1919,68.18,84,0,8.3,GB,2021-05-29 16:48:39
110,Yeppoon,-23.1333,150.7333,60.58,75,96,14.9,AU,2021-05-29 16:48:39
111,Bathsheba,13.2167,-59.5167,86.61,54,40,16.69,BB,2021-05-29 16:48:40
112,Rocha,-34.4833,-54.3333,52.74,63,63,18.66,UY,2021-05-29 16:48:40
113,Chokurdakh,70.6333,147.9167,45.09,59,9,9.1,RU,2021-05-29 16:48:40
114,Alofi,-19.0595,-169.9187,73.29,100,89,3.44,NU,2021-05-29 16:48:41
115,Luancheng,37.8792,114.6517,64.56,43,79,1.03,CN,2021-05-29 16:48:41
116,Sambava,-14.2667,50.1667,75.58,81,3,8.63,MG,2021-05-29 16:48:41
117,Nuuk,64.1835,-51.7216,41.61,81,75,13.8,GL,2021-05-29 16:48:41
118,Montbrison,45.6667,4.0833,73.74,71,96,8.3,FR,2021-05-29 16:48:42
119,Nikolskoye,59.7035,30.7861,53.49,48,2,7.45,RU,2021-05-29 16:48:42
120,Moroni,-11.7022,43.2551,77.0,79,61,9.22,KM,2021-05-29 16:48:42
121,Anadyr,64.75,177.4833,36.1,69,0,5.99,RU,2021-05-29 16:48:43
122,Lamar,33.6668,-95.5836,74.86,72,1,8.25,US,2021-05-29 16:48:43
123,Port Alfred,-33.5906,26.891,64.35,65,78,33.33,ZA,2021-05-29 16:48:43
124,Tomatlan,19.9333,-105.25,92.26,26,100,6.51,MX,2021-05-29 16:48:44
125,Belaya Gora,68.5333,146.4167,48.27,54,13,8.9,RU,2021-05-29 16:48:44
126,Ewa Beach,21.3156,-158.0072,75.09,76,1,3.0,US,2021-05-29 16:47:30
127,Labuhan,-6.8844,112.2051,78.53,85,54,6.15,ID,2021-05-29 16:48:44
128,Gualaquiza,-3.4,-78.55,80.98,49,43,2.66,EC,2021-05-29 16:48:45
129,Hami,42.8,93.45,83.12,10,75,8.12,CN,2021-05-29 16:48:45
130,Isangel,-19.55,169.2667,70.34,68,77,2.84,VU,2021-05-29 16:48:45
131,Asau,46.4333,26.4,61.72,87,81,2.26,RO,2021-05-29 16:48:46
132,Severo-Kurilsk,50.6789,156.125,39.13,83,67,3.58,RU,2021-05-29 16:48:46
133,Port Elizabeth,-33.918,25.5701,62.89,67,20,23.02,ZA,2021-05-29 16:48:46
134,Hammerfest,70.6634,23.6821,41.45,75,90,17.27,NO,2021-05-29 16:48:46
135,Paragominas,-2.9667,-47.4833,90.77,48,51,2.35,BR,2021-05-29 16:48:47
136,Kosh-Agach,50.0,88.6667,42.48,56,0,4.76,RU,2021-05-29 16:48:47
137,Chala,-7.5833,31.2667,59.56,76,31,1.59,TZ,2021-05-29 16:48:47
138,Brae,60.3964,-1.353,48.11,76,6,6.82,GB,2021-05-29 16:48:48
139,Wanaka,-44.7,169.15,43.92,97,100,8.5,NZ,2021-05-29 16:45:00
140,Faya,18.3851,42.4509,73.51,40,93,7.38,SA,2021-05-29 16:48:43
141,Uchana,29.4667,76.1667,94.66,38,39,18.05,IN,2021-05-29 16:48:48
142,Norman Wells,65.282,-126.8329,33.84,93,90,4.61,CA,2021-05-29 16:48:49
143,Bilma,18.6853,12.9164,100.78,6,15,2.04,NE,2021-05-29 16:48:49
144,Castro,-24.7911,-50.0119,74.88,58,21,13.51,BR,2021-05-29 16:48:49
145,Basco,20.4487,121.9702,84.81,76,100,14.83,PH,2021-05-29 16:48:50
146,Salalah,17.0151,54.0924,84.29,89,20,9.22,OM,2021-05-29 16:48:50
147,Chapais,49.7834,-74.8492,47.98,29,3,5.06,CA,2021-05-29 16:47:43
148,Vila,42.0304,-8.1588,73.22,61,9,6.17,PT,2021-05-29 16:48:50
149,Bandarbeyla,9.4942,50.8122,80.11,84,7,28.23,SO,2021-05-29 16:48:50
150,Samarai,-10.6167,150.6667,77.95,75,98,12.28,PG,2021-05-29 16:48:51
151,Port Keats,-14.25,129.55,69.19,51,87,8.01,AU,2021-05-29 16:48:51
152,Bisho,-32.8472,27.4422,56.03,71,37,6.06,ZA,2021-05-29 16:48:51
153,Secunda,-26.55,29.1667,54.32,44,0,4.7,ZA,2021-05-29 16:48:52
154,Srednekolymsk,67.45,153.6833,47.86,50,50,9.57,RU,2021-05-29 16:48:52
155,Filadelfia,39.9523,-75.1638,51.37,93,90,8.01,US,2021-05-29 16:48:31
156,Vardo,70.3705,31.1107,39.54,74,90,15.05,NO,2021-05-29 16:48:52
157,Vostok,46.4856,135.8833,43.81,90,100,2.26,RU,2021-05-29 16:48:53
158,Bambous Virieux,-20.3428,57.7575,75.45,88,75,3.74,MU,2021-05-29 16:48:53
159,Saint-Philippe,-21.3585,55.7679,71.19,78,38,5.3,RE,2021-05-29 16:48:53
160,Bollnas,61.3482,16.3946,61.39,42,14,7.16,SE,2021-05-29 16:48:54
161,El Dorado,38.7666,-120.5177,77.49,49,52,4.0,US,2021-05-29 16:46:07
162,Saint George,37.1041,-113.5841,90.07,15,1,1.01,US,2021-05-29 16:48:32
163,Doha,25.2867,51.5333,104.31,40,0,5.75,QA,2021-05-29 16:44:39
164,Dikson,73.5069,80.5464,22.33,92,49,1.45,RU,2021-05-29 16:48:54
165,Alakurtti,66.9672,30.3491,44.64,41,97,7.72,RU,2021-05-29 16:48:54
166,Puerto Ayora,-0.7393,-90.3518,77.56,84,55,8.01,EC,2021-05-29 16:48:55
167,Yamada,39.4667,141.95,55.35,86,28,5.82,JP,2021-05-29 16:48:55
168,Sao Filipe,14.8961,-24.4956,74.82,75,4,15.32,CV,2021-05-29 16:48:55
169,Naryan-Mar,67.6713,53.087,37.63,54,89,14.16,RU,2021-05-29 16:48:56
170,Torbay,47.6666,-52.7314,57.27,59,75,17.27,CA,2021-05-29 16:48:56
171,Talcahuano,-36.7167,-73.1167,53.28,82,0,4.61,CL,2021-05-29 16:44:21
172,Ahipara,-35.1667,173.1667,54.72,78,56,12.97,NZ,2021-05-29 16:48:56
173,Jamestown,42.097,-79.2353,49.59,86,90,8.99,US,2021-05-29 16:48:57
174,Soyo,-6.1349,12.3689,82.45,83,14,10.11,AO,2021-05-29 16:48:57
175,Mar Del Plata,-38.0023,-57.5575,48.99,55,40,11.99,AR,2021-05-29 16:48:57
176,Hirara,24.8,125.2833,80.82,87,56,7.09,JP,2021-05-29 16:48:58
177,Kanigiri,15.4,79.5167,90.36,49,92,6.85,IN,2021-05-29 16:48:58
178,Iqaluit,63.7506,-68.5145,28.13,74,75,24.16,CA,2021-05-29 16:48:58
179,Lasa,46.6166,10.7002,65.28,84,98,6.29,IT,2021-05-29 16:48:58
180,La Ronge,55.1001,-105.2842,46.65,81,90,14.97,CA,2021-05-29 16:48:59
181,Chumikan,54.7183,135.315,35.08,93,95,4.88,RU,2021-05-29 16:48:59
182,Nong Han,17.3608,103.1053,84.99,71,91,7.47,TH,2021-05-29 16:48:59
183,East London,-33.0153,27.9116,61.74,72,0,11.5,ZA,2021-05-29 16:48:59
184,Khandagayty,50.7333,92.05,43.05,50,3,7.47,RU,2021-05-29 16:49:00
185,Kunyang,27.6658,120.5658,64.62,96,100,3.13,CN,2021-05-29 16:49:00
186,Hovd,48.0056,91.6419,50.85,55,60,10.47,MN,2021-05-29 16:49:01
187,Karratha,-20.7377,116.8463,71.01,73,100,10.58,AU,2021-05-29 16:49:01
188,Sabang,5.8933,95.3214,83.35,74,100,9.55,ID,2021-05-29 16:49:01
189,Prince Rupert,54.3161,-130.3201,51.89,70,75,5.75,CA,2021-05-29 16:44:20
190,Masuguru,-11.3667,38.4167,73.35,53,9,2.8,TZ,2021-05-29 16:49:02
191,La Libertad,-2.2333,-80.9,74.03,84,96,9.6,EC,2021-05-29 16:49:02
192,Tateyama,34.9833,139.8667,69.1,86,31,14.29,JP,2021-05-29 16:49:02
193,Longyearbyen,78.2186,15.6401,35.44,69,75,8.05,SJ,2021-05-29 16:49:03
194,Phalombe,-15.8064,35.6507,63.79,50,0,1.81,MW,2021-05-29 16:49:03
195,Fredericton,45.9454,-66.6656,56.37,38,1,1.01,CA,2021-05-29 16:45:19
196,Wanning,18.8003,110.3967,81.72,88,61,11.3,CN,2021-05-29 16:49:03
197,Natitingou,10.3042,1.3796,93.25,29,78,0.34,BJ,2021-05-29 16:49:04
198,Ancud,-41.8697,-73.8203,48.42,72,100,8.25,CL,2021-05-29 16:44:14
199,Tuatapere,-46.1333,167.6833,49.82,94,100,7.09,NZ,2021-05-29 16:49:04
200,Namatanai,-3.6667,152.4333,79.61,84,100,6.85,PG,2021-05-29 16:49:04
201,San Juan,-31.5375,-68.5364,70.74,34,75,10.54,AR,2021-05-29 16:49:05
202,Ukiah,39.1502,-123.2078,81.03,51,1,4.61,US,2021-05-29 16:49:05
203,Sibolga,1.7427,98.7792,77.11,90,30,3.29,ID,2021-05-29 16:49:05
204,Arraial Do Cabo,-22.9661,-42.0278,94.96,58,75,8.05,BR,2021-05-29 16:48:44
205,Mulege,26.8833,-111.9833,86.04,22,43,5.61,MX,2021-05-29 16:49:06
206,Maarianhamina,60.0973,19.9348,55.26,38,0,12.66,AX,2021-05-29 16:49:06
207,Kokopo,-4.352,152.2633,77.61,88,99,11.77,PG,2021-05-29 16:49:06
208,Itoman,26.1247,127.6694,71.98,94,75,11.5,JP,2021-05-29 16:49:07
209,Carnarvon,-24.8667,113.6333,66.27,82,90,10.36,AU,2021-05-29 16:48:41
210,Porto Novo,6.4965,2.6036,85.82,72,100,8.81,BJ,2021-05-29 16:46:37
211,Puerto Escondido,15.85,-97.0667,87.67,60,82,5.48,MX,2021-05-29 16:49:07
212,Okha,53.5739,142.9478,34.39,96,100,12.93,RU,2021-05-29 16:49:08
213,Aguimes,27.9054,-15.4461,70.66,56,20,19.57,ES,2021-05-29 16:49:08
214,Sitka,57.0531,-135.33,49.89,71,90,10.36,US,2021-05-29 16:49:08
215,Sergeyevka,53.88,67.4158,64.92,43,9,8.66,KZ,2021-05-29 16:49:08
216,Petropavlovka,50.6114,105.3196,43.07,89,100,5.55,RU,2021-05-29 16:49:09
217,Pevek,69.7008,170.3133,40.6,63,3,9.69,RU,2021-05-29 16:49:09
218,Kruisfontein,-34.0033,24.7314,54.88,85,50,18.32,ZA,2021-05-29 16:47:23
219,Visby,57.6409,18.296,56.77,44,0,12.66,SE,2021-05-29 16:49:09
220,Dali,25.7,100.1833,66.09,75,44,5.88,CN,2021-05-29 16:49:10
221,Oyek,52.5861,104.4556,46.78,79,100,2.84,RU,2021-05-29 16:49:10
222,Karatu,-3.3333,35.6667,62.44,85,70,3.49,TZ,2021-05-29 16:49:10
223,Geraldton,-28.7667,114.6,63.12,67,40,14.65,AU,2021-05-29 16:48:43
224,Pokhara,28.2333,83.9833,71.87,79,63,3.83,NP,2021-05-29 16:49:11
225,Mikhaylov,54.2292,39.0186,68.04,94,100,12.46,RU,2021-05-29 16:49:11
226,Asfi,32.2994,-9.2372,71.96,70,93,16.22,MA,2021-05-29 16:49:11
227,Rock Sound,24.9,-76.2,77.85,76,3,11.3,BS,2021-05-29 16:49:12
228,Ziguinchor,12.5833,-16.2719,95.2,41,0,11.5,SN,2021-05-29 16:49:12
229,Grindavik,63.8424,-22.4338,49.95,81,90,28.95,IS,2021-05-29 16:49:12
230,Cidreira,-30.1811,-50.2056,65.84,62,12,14.2,BR,2021-05-29 16:49:13
231,Luderitz,-26.6481,15.1594,63.72,64,54,19.35,NA,2021-05-29 16:49:13
232,Provideniya,64.3833,-173.3,40.3,52,7,12.57,RU,2021-05-29 16:49:13
233,Walvis Bay,-22.9575,14.5053,67.15,59,66,13.15,NA,2021-05-29 16:49:13
234,Orlik,52.5178,99.825,32.4,81,34,1.77,RU,2021-05-29 16:49:14
235,Rafaela,-31.2503,-61.4867,64.99,32,1,5.01,AR,2021-05-29 16:49:14
236,Diego De Almagro,-26.3667,-70.05,78.84,17,0,6.6,CL,2021-05-29 16:48:02
237,Navirai,-23.065,-54.1906,91.36,24,100,13.82,BR,2021-05-29 16:49:14
238,Teahupoo,-17.8333,-149.2667,67.96,71,72,12.35,PF,2021-05-29 16:49:15
239,Wilmington,34.2257,-77.9447,88.93,54,1,21.85,US,2021-05-29 16:49:15
240,Cayenne,4.9333,-52.3333,86.04,82,40,5.01,GF,2021-05-29 16:49:15
241,Bosaso,11.2842,49.1816,89.1,50,8,1.97,SO,2021-05-29 16:49:16
242,Amapa,1.0,-52.0,81.82,82,82,3.18,BR,2021-05-29 16:49:16
243,Avera,33.194,-82.5271,82.9,40,76,14.12,US,2021-05-29 16:49:16
244,Coihaique,-45.5752,-72.0662,42.75,56,75,6.91,CL,2021-05-29 16:49:00
245,San Cristobal,7.7669,-72.225,69.98,76,62,5.21,VE,2021-05-29 16:49:17
246,Bratsk,56.1325,101.6142,37.89,78,74,4.94,RU,2021-05-29 16:49:17
247,Chuy,-33.6971,-53.4616,57.83,57,45,17.47,UY,2021-05-29 16:49:17
248,Hasaki,35.7333,140.8333,66.6,83,42,1.19,JP,2021-05-29 16:49:18
249,Florida,28.7505,-82.5001,90.05,60,75,3.0,US,2021-05-29 16:49:18
250,Batsfjord,70.6345,29.7185,39.6,76,98,16.42,NO,2021-05-29 16:49:19
251,Mount Isa,-20.7333,139.5,58.77,33,0,9.22,AU,2021-05-29 16:49:19
252,Lagoa,39.05,-27.9833,63.43,71,67,5.75,PT,2021-05-29 16:49:19
253,Dubbo,-32.25,148.6167,39.33,75,2,10.36,AU,2021-05-29 16:49:20
254,Marica,-22.9194,-42.8186,100.29,51,8,9.28,BR,2021-05-29 16:49:15
255,Zhangye,38.9342,100.4517,67.8,34,100,2.28,CN,2021-05-29 16:49:20
256,Ndende,-2.4008,11.3581,78.6,86,88,2.13,GA,2021-05-29 16:49:20
257,Henties Bay,-22.116,14.2845,60.85,77,37,10.02,NA,2021-05-29 16:49:21
258,Yulara,-25.2406,130.9889,51.64,58,72,9.22,AU,2021-05-29 16:49:21
259,Kodiak,57.79,-152.4072,45.91,93,90,9.22,US,2021-05-29 16:46:10
260,Birjand,32.8663,59.2211,82.87,10,0,6.91,IR,2021-05-29 16:47:09
261,Lixourion,38.2019,20.4314,75.06,68,20,9.64,GR,2021-05-29 16:49:21
262,Atambua,-9.1061,124.8925,70.43,87,60,4.94,ID,2021-05-29 16:49:22
263,Kerema,-7.9631,145.7785,76.69,86,100,4.97,PG,2021-05-29 16:49:22
264,Igrim,63.1906,64.4162,55.96,65,100,2.53,RU,2021-05-29 16:49:22
265,Okhotsk,59.3833,143.3,35.53,92,100,10.56,RU,2021-05-29 16:49:22
266,Green River,41.5286,-109.4662,68.18,25,100,5.88,US,2021-05-29 16:49:23
267,Hualmay,-11.0964,-77.6139,68.59,76,70,10.51,PE,2021-05-29 16:49:23
268,Thompson,55.7435,-97.8558,64.56,42,40,10.36,CA,2021-05-29 16:49:13
269,Pangai,-19.8,-174.35,77.52,82,86,4.72,TO,2021-05-29 16:49:23
270,Ygatimi,-24.0833,-55.5,88.23,37,94,5.59,PY,2021-05-29 16:49:24
271,Port-Cartier,50.0334,-66.8654,52.93,51,35,9.24,CA,2021-05-29 16:49:24
272,Westport,41.1415,-73.3579,50.45,92,90,1.01,US,2021-05-29 16:45:48
273,Prieska,-29.6641,22.7474,56.01,39,38,8.97,ZA,2021-05-29 16:49:24
274,Luau,-10.7073,22.2247,65.95,36,5,4.99,AO,2021-05-29 16:49:25
275,Shenjiamen,29.9576,122.298,67.03,93,100,18.19,CN,2021-05-29 16:49:25
276,Rong Kwang,18.339,100.3174,77.63,90,100,1.9,TH,2021-05-29 16:49:25
277,Narragansett,41.4501,-71.4495,49.24,87,90,8.99,US,2021-05-29 16:49:26
278,Kalmunai,7.4167,81.8167,82.56,77,95,4.27,LK,2021-05-29 16:49:26
279,Karlshamn,56.1706,14.8619,64.89,56,27,4.9,SE,2021-05-29 16:49:26
280,Kuytun,54.3419,101.5036,38.68,86,98,7.83,RU,2021-05-29 16:49:27
281,Khatanga,71.9667,102.5,36.34,84,98,9.89,RU,2021-05-29 16:49:03
282,Kandrian,-6.2167,149.55,78.28,86,87,11.63,PG,2021-05-29 16:49:27
283,Elizabeth City,36.2946,-76.2511,88.02,53,1,1.99,US,2021-05-29 16:49:27
284,Tilichiki,60.4667,166.1,35.58,86,99,5.7,RU,2021-05-29 16:49:28
285,Beringovskiy,63.05,179.3167,28.76,89,22,9.48,RU,2021-05-29 16:49:28
286,Manicore,-5.8092,-61.3003,94.06,41,11,3.33,BR,2021-05-29 16:49:28
287,Laguna,38.421,-121.4238,76.24,58,1,6.76,US,2021-05-29 16:49:28
288,Townsville,-19.25,146.8,56.28,94,8,5.75,AU,2021-05-29 16:48:27
289,Inhambane,-23.865,35.3833,69.85,80,0,4.41,MZ,2021-05-29 16:49:29
290,Puerto Ayacucho,5.6639,-67.6236,81.91,80,93,0.78,VE,2021-05-29 16:49:29
291,Horizontina,-27.6258,-54.3078,66.27,79,99,7.09,BR,2021-05-29 16:49:29
292,Kalmar,56.6616,16.3616,58.93,49,2,9.22,SE,2021-05-29 16:49:30
293,Titlagarh,20.3,83.15,89.42,43,91,9.26,IN,2021-05-29 16:49:30
294,Amherst Center,42.3754,-72.5192,48.24,89,100,3.0,US,2021-05-29 16:48:01
295,Belyy Yar,53.6039,91.3903,42.69,93,91,2.48,RU,2021-05-29 16:49:30
296,Pervomayskiy,53.2485,40.2871,65.12,82,72,5.19,RU,2021-05-29 16:49:31
297,Faranah,10.0404,-10.7434,88.16,49,95,3.8,GN,2021-05-29 16:49:31
298,Ust-Omchug,61.15,149.6333,32.65,92,100,6.29,RU,2021-05-29 16:49:31
299,Lompoc,34.6391,-120.4579,60.48,81,90,10.36,US,2021-05-29 16:49:32
300,Banda Aceh,5.5577,95.3222,80.89,78,100,7.49,ID,2021-05-29 16:49:32
301,Kalabo,-14.97,22.6814,64.47,26,0,2.3,ZM,2021-05-29 16:49:32
302,Opuwo,-18.0607,13.84,69.64,22,3,7.78,NA,2021-05-29 16:49:29
303,Los Llanos De Aridane,28.6585,-17.9182,67.75,79,20,12.62,ES,2021-05-29 16:49:33
304,Ipora,-16.4419,-51.1178,86.27,34,99,7.4,BR,2021-05-29 16:49:33
305,Esperance,-33.8667,121.9,60.64,83,100,22.7,AU,2021-05-29 16:49:33
306,Itaueira,-7.6033,-43.0256,96.22,20,15,7.25,BR,2021-05-29 16:49:33
307,Knysna,-34.0363,23.0471,57.58,88,74,14.16,ZA,2021-05-29 16:49:34
308,Capao Bonito,-24.0058,-48.3494,82.98,40,29,13.27,BR,2021-05-29 16:49:34
309,Texarkana,33.4251,-94.0477,73.74,65,1,4.0,US,2021-05-29 16:49:34
310,College,64.8569,-147.8028,43.0,49,75,14.97,US,2021-05-29 16:49:35
311,Shurugwi,-19.6702,30.0059,57.94,27,0,2.06,ZW,2021-05-29 16:49:35
312,Rovaniemi,66.5,25.7167,51.21,37,0,4.61,FI,2021-05-29 16:49:35
313,Galesong,-5.3166,119.3661,75.22,79,39,4.9,ID,2021-05-29 16:49:36
314,Iskateley,67.6803,53.1512,37.56,54,89,14.18,RU,2021-05-29 16:49:36
315,Svetlaya,46.5389,138.3297,43.93,94,100,17.72,RU,2021-05-29 16:49:36
316,Klyuchi,52.2667,79.1667,57.22,49,17,8.79,RU,2021-05-29 16:49:37
317,Caravelas,-17.7125,-39.2481,82.67,63,81,8.81,BR,2021-05-29 16:49:37
318,Itarema,-2.9248,-39.9167,86.09,62,68,13.62,BR,2021-05-29 16:49:36
319,Mahebourg,-20.4081,57.7,75.49,88,75,4.61,MU,2021-05-29 16:44:50
320,Bulgan,48.8125,103.5347,45.37,83,73,6.58,MN,2021-05-29 16:49:38
321,Menongue,-14.6585,17.691,63.19,28,0,3.91,AO,2021-05-29 16:49:38
322,Kavaratti,10.5669,72.642,83.71,75,54,16.98,IN,2021-05-29 16:49:38
323,Usinsk,65.9939,57.5281,40.39,84,99,10.63,RU,2021-05-29 16:49:38
324,Hue,16.4667,107.6,86.11,74,20,3.18,VN,2021-05-29 16:49:39
325,Qasigiannguit,68.8193,-51.1922,62.85,37,97,21.3,GL,2021-05-29 16:49:39
326,Darlowo,54.421,16.4107,51.84,78,4,13.44,PL,2021-05-29 16:49:39
327,Tocopilla,-22.092,-70.1979,70.38,64,19,7.63,CL,2021-05-29 16:49:40
328,Spornoye,50.8448,37.2913,68.02,85,98,5.37,RU,2021-05-29 16:49:40
329,Ndola,-12.9587,28.6366,60.12,43,0,1.9,ZM,2021-05-29 16:49:40
330,Saint-Pierre,-21.3393,55.4781,71.28,78,0,2.3,RE,2021-05-29 16:49:30
331,Makaleng,-20.9,27.2833,63.37,24,0,2.86,BW,2021-05-29 16:49:41
332,Nea Stira,38.1833,24.2,76.91,58,6,3.96,GR,2021-05-29 16:49:41
333,Husavik,66.0449,-17.3389,57.11,55,66,13.24,IS,2021-05-29 16:49:41
334,Vila Velha,-20.3297,-40.2925,85.96,54,20,15.01,BR,2021-05-29 16:49:42
335,Ilulissat,69.2167,-51.1,62.62,20,75,13.8,GL,2021-05-29 16:49:41
336,Fortuna,40.5982,-124.1573,52.66,94,90,5.75,US,2021-05-29 16:49:38
337,Hirado,33.3597,129.5531,65.35,68,56,1.68,JP,2021-05-29 16:49:42
338,Derzhavinsk,51.1,66.3167,71.06,28,40,10.4,KZ,2021-05-29 16:49:42
339,Hailey,43.5196,-114.3153,62.91,38,9,10.0,US,2021-05-29 16:49:43
340,Finnsnes,69.2296,17.9811,50.61,73,50,9.24,NO,2021-05-29 16:49:43
341,Ngunguru,-35.6167,174.5,46.17,85,23,10.94,NZ,2021-05-29 16:49:43
342,Saldanha,-33.0117,17.9442,60.85,85,99,9.46,ZA,2021-05-29 16:49:43
343,Ovalle,-30.5983,-71.2003,75.43,37,0,3.24,CL,2021-05-29 16:48:08
344,Taunggyi,20.7833,97.0333,65.93,91,100,3.71,MM,2021-05-29 16:49:44
345,Necochea,-38.5473,-58.7368,51.04,54,96,22.91,AR,2021-05-29 16:49:04
346,Uberaba,-19.7483,-47.9319,82.98,42,75,10.36,BR,2021-05-29 16:49:44
347,Kavieng,-2.5744,150.7967,81.86,81,90,11.43,PG,2021-05-29 16:49:45
348,Lavrentiya,65.5833,-171.0,28.72,85,12,11.43,RU,2021-05-29 16:49:45
349,San Jose,37.3394,-121.895,65.48,68,75,3.44,US,2021-05-29 16:44:56
350,Margate,51.3813,1.3862,63.1,84,0,15.37,GB,2021-05-29 16:49:45
351,Kahului,20.8947,-156.47,77.85,75,20,3.44,US,2021-05-29 16:47:25
352,Eresos,39.1667,25.9333,74.71,70,0,7.23,GR,2021-05-29 16:49:46
353,Oistins,13.0667,-59.5333,86.09,54,40,19.57,BB,2021-05-29 16:45:40
354,Leshukonskoye,64.8989,45.7622,36.66,80,81,12.17,RU,2021-05-29 16:49:46
355,Katsuura,35.1333,140.3,69.19,86,49,14.81,JP,2021-05-29 16:49:46
356,Dudinka,69.4058,86.1778,15.87,97,51,4.18,RU,2021-05-29 16:49:47
357,Alta Floresta,-9.8756,-56.0861,86.74,43,11,3.56,BR,2021-05-29 16:49:47
358,Kabo,7.6994,18.629,86.38,43,99,6.46,CF,2021-05-29 16:49:47
359,Pringsewu,-5.3582,104.9744,74.46,96,100,4.63,ID,2021-05-29 16:49:47
360,Port Blair,11.6667,92.75,81.54,82,100,7.18,IN,2021-05-29 16:49:48
361,Jiancheng,30.391,104.5491,74.41,80,100,6.04,CN,2021-05-29 16:49:48
362,Chingirlau,51.095,54.0814,66.11,74,87,7.52,KZ,2021-05-29 16:49:48
363,Otofuke,42.9917,143.2003,45.66,98,89,2.39,JP,2021-05-29 16:49:49
364,Noumea,-22.2763,166.4572,71.01,99,97,13.4,NC,2021-05-29 16:49:49
365,Xucheng,20.35,110.1288,81.3,70,97,3.18,CN,2021-05-29 16:49:49
366,Penzance,50.1186,-5.5371,65.41,63,20,8.05,GB,2021-05-29 16:49:50
367,Solone,48.2081,34.8721,66.69,81,99,10.6,UA,2021-05-29 16:49:50
368,Kindersley,51.4668,-109.1682,59.02,47,40,17.27,CA,2021-05-29 16:49:50
369,Bubaque,11.2833,-15.8333,79.63,68,31,14.07,GW,2021-05-29 16:49:50
370,Traverse City,44.7631,-85.6206,63.34,33,1,10.36,US,2021-05-29 16:49:51
371,Taltal,-25.4,-70.4833,69.73,62,36,4.79,CL,2021-05-29 16:49:51
372,Kudahuvadhoo,2.6708,72.8944,84.18,73,67,20.0,MV,2021-05-29 16:49:51
373,Diu,20.7141,70.9822,84.16,75,100,10.89,IN,2021-05-29 16:49:52
374,Kashi,39.4547,75.9797,85.21,14,40,9.19,CN,2021-05-29 16:49:52
375,Pangody,65.85,74.4859,53.04,52,83,22.86,RU,2021-05-29 16:49:52
376,Linqiong,30.4159,103.4609,73.22,69,100,4.45,CN,2021-05-29 16:49:53
377,Port Antonio,18.18,-76.4612,85.91,68,10,9.8,JM,2021-05-29 16:49:53
378,Bac Giang,21.2667,106.2,84.27,85,80,8.43,VN,2021-05-29 16:49:53
379,Adrar,20.5022,-10.0711,109.44,7,97,14.23,MR,2021-05-29 16:49:53
380,Marystown,47.1666,-55.1483,47.46,65,94,17.76,CA,2021-05-29 16:46:07
381,Dongkan,33.9997,119.8308,72.55,74,36,9.24,CN,2021-05-29 16:49:54
382,Acapulco,16.8634,-99.8901,88.21,56,27,7.05,MX,2021-05-29 16:48:04
383,Irati,-25.4672,-50.6511,79.0,50,38,7.31,BR,2021-05-29 16:49:54
384,Dabakala,8.3667,-4.4333,94.82,35,96,7.74,CI,2021-05-29 16:49:54
385,Carutapera,-1.195,-46.02,84.79,69,94,7.58,BR,2021-05-29 16:49:55
386,Preobrazheniye,42.9019,133.9064,47.71,96,100,2.35,RU,2021-05-29 16:49:55
387,Teknaf,20.8624,92.3058,82.17,87,28,5.44,BD,2021-05-29 16:49:55
388,Alihe,50.5667,123.7167,42.53,96,18,1.48,CN,2021-05-29 16:49:56
389,Cap-Aux-Meules,47.3821,-61.8597,46.45,61,75,10.36,CA,2021-05-29 16:49:56
390,Martil,35.6166,-5.2752,82.47,78,40,13.8,MA,2021-05-29 16:49:56
391,Safaga,26.7292,33.9365,93.15,37,45,12.68,EG,2021-05-29 16:49:57
392,The Valley,18.217,-63.0578,87.66,65,40,14.97,AI,2021-05-29 16:49:57
393,Lodwar,3.1191,35.5973,89.65,35,15,6.38,KE,2021-05-29 16:49:57
394,Livny,52.4253,37.6069,64.47,85,97,1.83,RU,2021-05-29 16:49:58
395,Fairbanks,64.8378,-147.7164,43.21,51,75,11.5,US,2021-05-29 16:46:51
396,Ust-Kulom,61.6864,53.6902,53.58,64,99,4.72,RU,2021-05-29 16:49:58
397,Bulawayo,-20.15,28.5833,60.31,25,0,4.41,ZW,2021-05-29 16:49:58
398,Makrana,27.05,74.7167,97.59,20,0,16.87,IN,2021-05-29 16:49:59
399,Amazar,53.858,120.875,41.72,93,7,2.59,RU,2021-05-29 16:49:59
400,Kita,13.0349,-9.4895,98.53,24,56,3.94,ML,2021-05-29 16:49:59
401,Petropavlovsk-Kamchatskiy,53.0452,158.6483,39.79,87,75,1.21,RU,2021-05-29 16:50:00
402,Qandala,11.472,49.8728,89.92,51,13,4.47,SO,2021-05-29 16:50:00
403,Kompolt,47.7333,20.25,58.86,81,42,2.8,HU,2021-05-29 16:50:00
404,Tessalit,20.1986,1.0114,107.55,4,58,14.43,ML,2021-05-29 16:50:01
405,Port Lincoln,-34.7333,135.8667,56.44,65,0,14.38,AU,2021-05-29 16:50:01
406,Sayat,38.7839,63.8803,96.67,12,0,11.34,TM,2021-05-29 16:50:01
407,Minab,27.1467,57.0801,98.1,35,0,5.66,IR,2021-05-29 16:50:01
408,Alice Springs,-23.7,133.8833,40.55,70,2,5.7,AU,2021-05-29 16:50:03
409,Sodegaura,35.4186,140.0177,69.3,85,28,7.85,JP,2021-05-29 16:50:04
410,Guatire,10.4762,-66.5427,88.7,43,48,6.08,VE,2021-05-29 16:46:08
411,Mecca,21.4267,39.8261,92.62,34,12,2.01,SA,2021-05-29 16:48:08
412,Save,8.0425,2.486,86.9,60,59,1.88,BJ,2021-05-29 16:50:04
413,Pedernales,18.0384,-71.744,85.03,62,5,7.31,DO,2021-05-29 16:50:04
414,Houma,29.5958,-90.7195,81.0,77,92,1.99,US,2021-05-29 16:48:50
415,Marawi,7.9986,124.2928,73.65,93,63,1.66,PH,2021-05-29 16:50:05
416,Zholymbet,51.7433,71.7122,63.28,40,1,11.92,KZ,2021-05-29 16:50:05
417,Iquitos,-3.7481,-73.2472,89.64,66,75,3.44,PE,2021-05-29 16:50:06
418,Solano,38.2333,-121.9511,68.07,62,1,25.32,US,2021-05-29 16:50:06
419,Chicama,-7.8447,-79.1469,63.14,69,62,9.57,PE,2021-05-29 16:50:06
420,Keetmanshoop,-26.5833,18.1333,70.72,23,0,1.14,NA,2021-05-29 16:50:06
421,La Palma,33.8464,-118.0467,66.85,76,90,1.99,US,2021-05-29 16:46:08
422,Gajendragarh,15.7333,75.9833,79.63,68,57,17.09,IN,2021-05-29 16:50:07
423,Quatre Cocos,-20.2078,57.7625,75.31,87,23,4.38,MU,2021-05-29 16:50:07
424,Hay River,60.8156,-115.7999,57.18,44,20,5.75,CA,2021-05-29 16:45:37
425,Aklavik,68.2191,-135.0107,31.03,86,90,6.91,CA,2021-05-29 16:50:08
426,Ulladulla,-35.35,150.4667,52.88,65,100,14.7,AU,2021-05-29 16:50:08
427,Hamilton,39.1834,-84.5333,52.57,81,90,4.0,US,2021-05-29 16:49:58
428,Quelimane,-17.8786,36.8883,75.15,83,0,8.01,MZ,2021-05-29 16:50:08
429,Manokwari,-0.8667,134.0833,78.96,81,100,3.56,ID,2021-05-29 16:49:16
430,Rincon,32.296,-81.2354,82.85,68,75,1.01,US,2021-05-29 16:50:09
431,Togur,58.3631,82.8265,41.95,54,10,3.76,RU,2021-05-29 16:50:09
432,Ahuimanu,21.4447,-157.8378,74.86,73,20,7.63,US,2021-05-29 16:50:09
433,Abu Kamal,34.4506,40.9171,89.4,15,0,10.18,SY,2021-05-29 16:50:10
434,Senanga,-16.1167,23.2667,64.72,23,0,3.06,ZM,2021-05-29 16:50:10
435,Gorom-Gorom,14.4439,-0.2361,106.39,11,23,11.63,BF,2021-05-29 16:50:10
436,Mantua,45.1667,10.7833,76.24,57,79,7.76,IT,2021-05-29 16:50:10
437,Apache Junction,33.4151,-111.5496,92.77,9,1,1.99,US,2021-05-29 16:50:11
438,Portel,-1.9356,-50.8211,86.4,64,38,4.03,BR,2021-05-29 16:50:11
439,Bima,-8.4667,118.7167,74.01,94,66,3.51,ID,2021-05-29 16:50:11
440,Ojinaga,29.5667,-104.4167,89.56,45,1,10.36,MX,2021-05-29 16:50:08
441,Caohe,30.2297,115.4335,70.12,91,98,2.39,CN,2021-05-29 16:50:12
442,Requena,39.4883,-1.1004,75.99,33,4,7.54,ES,2021-05-29 16:50:12
443,Klaksvik,62.2266,-6.589,52.72,83,56,10.38,FO,2021-05-29 16:50:12
444,Tsabong,-26.0217,22.401,62.92,32,75,8.28,BW,2021-05-29 16:50:13
445,Vestmannaeyjar,63.4427,-20.2734,49.19,81,75,12.66,IS,2021-05-29 16:50:13
446,Kargasok,59.0556,80.8572,44.53,58,50,7.16,RU,2021-05-29 16:50:13
447,Libertador General San Martin,-23.8064,-64.7876,79.29,41,4,4.7,AR,2021-05-29 16:50:14
448,Kununurra,-15.7667,128.7333,58.98,88,85,0.0,AU,2021-05-29 16:50:14
449,Pisco,-13.7,-76.2167,66.02,88,90,6.91,PE,2021-05-29 16:50:14
450,Minudasht,37.2289,55.3747,83.77,65,40,5.59,IR,2021-05-29 16:50:14
451,Clyde River,70.4692,-68.5914,32.23,69,20,6.91,CA,2021-05-29 16:49:08
452,Linxia,35.6003,103.2064,58.89,46,84,3.53,CN,2021-05-29 16:50:15
453,Miri,4.4148,114.0089,77.14,94,40,3.42,MY,2021-05-29 16:50:15
454,Singaraja,-8.112,115.0882,78.93,83,66,3.2,ID,2021-05-29 16:50:16
455,Tautira,-17.7333,-149.15,73.42,71,80,11.05,PF,2021-05-29 16:49:37
456,Lucea,18.451,-78.1736,85.86,68,5,0.83,JM,2021-05-29 16:50:16
457,Norwich,52.6278,1.2983,67.95,63,20,5.01,GB,2021-05-29 16:50:16
458,Sunds,56.2042,9.0127,68.95,49,7,7.83,DK,2021-05-29 16:50:17
459,Ust-Shonosha,61.1531,41.343,42.64,71,98,8.68,RU,2021-05-29 16:50:17
460,Xiongyue,40.1774,122.1228,56.82,77,11,7.94,CN,2021-05-29 16:50:17
461,Guerrero Negro,27.9769,-114.0611,65.68,65,82,16.04,MX,2021-05-29 16:50:18
462,Seoul,37.5683,126.9778,56.71,93,0,2.73,KR,2021-05-29 16:50:18
463,Chincha Alta,-13.4099,-76.1323,64.76,69,10,7.7,PE,2021-05-29 16:50:18
464,Fuchu,35.6667,139.4833,68.9,75,75,8.95,JP,2021-05-29 16:50:19
465,Salina Cruz,16.1667,-95.2,85.77,66,93,8.81,MX,2021-05-29 16:50:19
466,Vilhena,-12.7406,-60.1458,86.22,45,0,8.05,BR,2021-05-29 16:50:14
467,Soe,-9.8607,124.284,62.38,91,75,4.21,ID,2021-05-29 16:50:19
468,Sao Miguel Do Guama,-1.6267,-47.4833,88.2,63,61,4.9,BR,2021-05-29 16:50:20
469,Apeldoorn,52.21,5.9694,66.18,58,40,7.2,NL,2021-05-29 16:49:01
470,Maridi,4.9158,29.4742,71.69,89,82,4.41,SS,2021-05-29 16:50:20
471,Huejuquilla El Alto,22.6,-103.8667,81.77,21,74,5.66,MX,2021-05-29 16:50:20
472,Mehamn,71.0357,27.8492,40.26,81,96,15.88,NO,2021-05-29 16:50:21
473,Kamenka,51.3223,42.7678,68.25,67,9,6.87,RU,2021-05-29 16:50:21
474,Yumen,40.2833,97.2,69.66,29,15,6.02,CN,2021-05-29 16:50:21
475,Meulaboh,4.1363,96.1285,77.99,86,87,3.98,ID,2021-05-29 16:50:22
476,Kirkwood,38.5834,-90.4068,56.75,74,90,1.99,US,2021-05-29 16:50:22
477,Morondava,-20.2833,44.2833,73.27,74,64,7.81,MG,2021-05-29 16:50:22
478,Baherden,38.4362,57.4316,95.7,12,6,6.73,TM,2021-05-29 16:50:23
479,Araouane,18.9048,-3.5265,108.0,12,20,10.83,ML,2021-05-29 16:50:23
480,Tigre,-34.426,-58.5796,56.05,44,0,17.27,AR,2021-05-29 16:50:23
481,Juneau,58.3019,-134.4197,48.22,95,90,5.01,US,2021-05-29 16:46:46
482,Byron Bay,-28.65,153.6167,59.05,78,97,16.15,AU,2021-05-29 16:49:17
483,Bayan,46.0833,127.4,55.99,61,61,3.69,CN,2021-05-29 16:50:24
484,Presidente Olegario,-18.4178,-46.4181,84.18,36,89,7.94,BR,2021-05-29 16:50:24
485,Astana,51.1801,71.446,64.35,39,0,13.04,KZ,2021-05-29 16:50:24
486,Banyo,6.75,11.8167,75.63,67,91,5.99,CM,2021-05-29 16:50:24
487,Ostrovnoy,68.0531,39.5131,35.73,78,96,17.98,RU,2021-05-29 16:50:25
488,Mokokchung,26.3333,94.5333,65.71,86,12,3.27,IN,2021-05-29 16:50:25
489,Poum,-20.2333,164.0167,70.9,65,88,20.2,NC,2021-05-29 16:50:25
490,Charters Towers,-20.1,146.2667,55.09,85,3,5.99,AU,2021-05-29 16:50:26
491,Ezhou,30.4,114.8333,69.84,90,92,4.83,CN,2021-05-29 16:50:26
492,Berlevag,70.8578,29.0864,39.92,79,95,15.7,NO,2021-05-29 16:50:26
493,Raton,36.9034,-104.4391,73.06,40,1,12.57,US,2021-05-29 16:50:27
494,Jalu,29.0331,21.5482,102.2,11,2,8.05,LY,2021-05-29 16:50:27
495,Isiro,2.7739,27.616,74.41,66,99,0.78,CD,2021-05-29 16:50:27
496,Omboue,-1.5746,9.2618,78.28,87,91,6.98,GA,2021-05-29 16:49:46
497,Olafsvik,64.8945,-23.7142,46.29,87,60,25.14,IS,2021-05-29 16:50:28
498,Portobelo,9.55,-79.65,82.81,84,99,3.69,PA,2021-05-29 16:50:28
499,Baltasi,56.3462,50.2062,65.43,81,93,2.66,RU,2021-05-29 16:50:28
500,Novyy Urgal,51.0736,132.5642,46.38,93,93,2.17,RU,2021-05-29 16:50:29
501,Mayumba,-3.432,10.6554,77.95,87,39,5.95,GA,2021-05-29 16:50:01
502,Elat,29.5581,34.9482,96.64,11,0,16.11,IL,2021-05-29 16:50:29
503,Riverton,40.5219,-111.9391,73.8,25,1,4.0,US,2021-05-29 16:50:30
504,Waingapu,-9.6567,120.2641,75.11,86,95,6.58,ID,2021-05-29 16:50:16
505,Harindanga,22.0383,88.3214,84.18,82,7,12.44,IN,2021-05-29 16:50:31
506,Nadvoitsy,63.8667,34.3167,43.83,58,98,5.17,RU,2021-05-29 16:50:31
507,Sur,22.5667,59.5289,91.0,49,13,10.11,OM,2021-05-29 16:50:32
508,Bahia Blanca,-38.7196,-62.2724,50.72,48,4,12.48,AR,2021-05-29 16:50:32
509,Kharp,66.8014,65.8081,41.11,74,57,10.71,RU,2021-05-29 16:50:32
510,San Ramon,37.7799,-121.978,66.38,75,90,3.0,US,2021-05-29 16:50:33
511,Shangrao,28.4532,117.9686,66.52,94,100,0.78,CN,2021-05-29 16:50:33
512,Winona,43.9666,-91.7668,59.43,47,1,6.78,US,2021-05-29 16:47:24
513,Xai-Xai,-25.0519,33.6442,68.34,82,3,5.26,MZ,2021-05-29 16:50:33
514,Ferrol,43.4832,-8.2369,70.05,85,84,14.54,ES,2021-05-29 16:50:34
515,Aykhal,66.0,111.5,50.36,61,25,7.14,RU,2021-05-29 16:50:34
516,Qeshm,26.9581,56.2719,98.47,59,0,9.8,IR,2021-05-29 16:47:21
517,Puerto Narino,-3.7703,-70.3831,89.55,46,25,2.53,CO,2021-05-29 16:50:34
518,Mindelo,16.8901,-24.9804,78.35,50,20,21.68,CV,2021-05-29 16:50:35
519,Ayagoz,47.9714,80.4392,53.17,59,0,14.58,KZ,2021-05-29 16:50:35
520,Santiago,-33.4569,-70.6483,61.18,66,90,1.14,CL,2021-05-29 16:49:53
521,Huaral,-11.495,-77.2078,64.33,71,51,7.49,PE,2021-05-29 16:50:35
522,Tartagal,-22.5164,-63.8013,72.5,49,74,8.59,AR,2021-05-29 16:50:36
523,Haines Junction,60.7522,-137.5108,46.35,49,65,11.5,CA,2021-05-29 16:50:28
524,Sorland,67.667,12.6934,44.78,82,50,8.95,NO,2021-05-29 16:50:36
525,Pingliang,35.5392,106.6861,66.87,25,40,7.16,CN,2021-05-29 16:50:36
526,Abilene,32.4487,-99.7331,79.29,65,75,13.8,US,2021-05-29 16:50:37
527,Aromashevo,56.8602,68.6375,63.68,64,12,8.9,RU,2021-05-29 16:50:37
528,Kattivakkam,13.2167,80.3167,88.07,81,14,14.29,IN,2021-05-29 16:50:37
529,Loudi,27.7344,111.9944,66.49,95,85,0.58,CN,2021-05-29 16:50:38
530,Aginskoye,51.1,114.53,48.61,54,100,13.65,RU,2021-05-29 16:50:38
531,Rundu,-17.9333,19.7667,65.26,21,1,3.89,NA,2021-05-29 16:50:38
532,Havoysund,70.9963,24.6622,41.88,88,97,21.03,NO,2021-05-29 16:50:39
533,Lebyazhye,55.2689,66.4947,64.96,45,5,9.06,RU,2021-05-29 16:50:39
534,Lata,40.1629,-8.3327,82.04,54,0,8.34,PT,2021-05-29 16:50:39
535,Boa Vista,2.8197,-60.6733,84.18,65,75,9.22,BR,2021-05-29 16:50:39
536,Turukhansk,65.8167,87.9833,29.88,89,54,7.72,RU,2021-05-29 16:50:40
537,Ponta Delgada,37.7333,-25.6667,70.52,60,40,13.8,PT,2021-05-29 16:50:40
538,San Carlos Del Zulia,9.0,-71.9135,87.91,56,100,2.42,VE,2021-05-29 16:50:40
539,Magadan,59.5667,150.8,35.83,98,100,3.69,RU,2021-05-29 16:50:41
540,Barcelona,41.3888,2.159,83.53,47,20,3.0,ES,2021-05-29 16:46:08
541,Ucar,40.519,47.6542,82.58,33,19,3.62,AZ,2021-05-29 16:50:41
542,Guarda,40.5373,-7.2658,72.23,36,34,9.6,PT,2021-05-29 16:50:41
543,Burgos,42.3394,-3.7079,63.01,77,75,24.16,ES,2021-05-29 16:50:42
544,Yakeshi,49.2833,120.7333,48.25,82,99,4.83,CN,2021-05-29 16:50:42
545,Mango,27.9797,-82.3065,92.08,58,40,3.0,US,2021-05-29 16:50:42
546,Iisalmi,63.5592,27.1907,50.02,42,22,6.02,FI,2021-05-29 16:50:43
547,Gavle,60.6745,17.1417,61.95,47,10,4.07,SE,2021-05-29 16:50:43
548,Akureyri,65.6835,-18.0878,57.13,41,20,14.97,IS,2021-05-29 16:50:43
549,Phalaborwa,-23.943,31.1411,68.92,43,0,4.27,ZA,2021-05-29 16:50:44
550,Kieta,-6.2167,155.6333,75.99,93,100,3.94,PG,2021-05-29 16:50:44
551,Calvia,39.5657,2.5062,72.9,37,0,6.08,ES,2021-05-29 16:50:44
552,Vrede,-27.4257,29.1659,48.85,35,1,5.01,ZA,2021-05-29 16:50:45
553,Seminole,28.7086,-81.2081,91.38,55,20,1.99,US,2021-05-29 16:46:35
554,Malabo,3.75,8.7833,85.86,84,20,10.36,GQ,2021-05-29 16:46:42
555,Mbini,1.574,9.6134,80.69,85,89,6.73,GQ,2021-05-29 16:50:45
556,Weiser,44.251,-116.9693,67.32,35,40,0.81,US,2021-05-29 16:50:45
557,Huarmey,-10.0681,-78.1522,69.73,77,84,10.31,PE,2021-05-29 16:50:46
558,Te Karaka,-38.4654,177.8679,48.18,97,100,3.51,NZ,2021-05-29 16:50:46
559,Tuy Hoa,13.0833,109.3,79.93,85,36,5.01,VN,2021-05-29 16:48:54
560,Rio Grande City,26.3798,-98.8203,76.75,46,26,7.92,US,2021-05-29 16:50:46
561,Dom Pedrito,-30.9828,-54.6731,63.27,54,20,12.37,BR,2021-05-29 16:50:47
562,Nome,64.5011,-165.4064,43.16,42,1,21.85,US,2021-05-29 16:50:47
563,Sinnamary,5.3833,-52.95,80.82,83,91,9.01,GF,2021-05-29 16:49:15
564,Edson,53.5835,-116.4356,57.34,41,1,13.8,CA,2021-05-29 16:50:47
565,Buraydah,26.326,43.975,104.45,8,12,11.45,SA,2021-05-29 16:50:01
