City_ID,City,Country,Max Temp,Current Description,Lat,Lng,Hotel Name
8,Cayenne,GF,77.09,clear sky,4.9333,-52.3333,Hôtel Le Dronmi
17,San Patricio,US,85.17,overcast clouds,28.017,-97.5169,"Motel 6 Sinton, TX"
20,Lucea,JM,85.86,overcast clouds,18.451,-78.1736,Grand Palladium Jamaica Resort & Spa
25,Kapaa,US,81.19,scattered clouds,22.0752,-159.319,Sheraton Kauai Coconut Beach Resort
28,Curaca,BR,79.65,overcast clouds,-8.9903,-39.9094,Hotel Recanto Campestre
39,Siquirres,CR,85.41,broken clouds,10.0975,-83.5066,Hotel Pacuare
44,Buraydah,SA,87.89,clear sky,26.326,43.975,فندق راحة السلام
50,Puerto Escondido,MX,86.09,broken clouds,15.85,-97.0667,Aldea del Bazar Hotel and Spa
51,Bengkulu,ID,75.24,overcast clouds,-3.8004,102.2655,Grage Hotel Bengkulu
54,High Level,CA,76.57,broken clouds,58.5169,-117.136,Days Inn by Wyndham High Level
58,Najran,SA,76.19,clear sky,17.4924,44.1277,محمد هادي ال فطيح
61,Acajutla,SV,84.24,scattered clouds,13.5928,-89.8275,asi es
70,Faanui,PF,78.3,scattered clouds,-16.4833,-151.75,Bora-Bora Pearl Beach Resort & Spa
72,Santiago De Cuba,CU,83.82,broken clouds,20.0247,-75.8219,Cubanacan San Felix
74,Puerto Cabezas,NI,82.87,broken clouds,14.0351,-83.3888,Cabaña Caribe
75,Atuona,PF,78.84,light rain,-9.8,-139.0333,Villa Enata
86,Kota Belud,MY,78.66,light rain,6.351,116.4305,Tang Dynasty Lodge Kota Belud
88,Avarua,CK,78.85,few clouds,-21.2078,-159.775,Paradise Inn
89,Dingle,PH,80.56,overcast clouds,10.9995,122.6711,SEGAYA PROPERTY
91,Sao Miguel Do Araguaia,BR,78.13,broken clouds,-13.275,-50.1628,Hotel Executivo Palace
96,Meulaboh,ID,76.23,overcast clouds,4.1363,96.1285,Kost Pria
103,Hithadhoo,MV,83.68,overcast clouds,-0.6,73.0833,Scoop Guest House
106,Cairns,AU,75.07,broken clouds,-16.9167,145.7667,Mantra Trilogy Cairns
110,Parambu,BR,77.59,scattered clouds,-6.2111,-40.6944,Hotel pousada santo onofre
119,Abu Dhabi,AE,87.55,clear sky,24.4667,54.3667,Ramee Garden Hotel Apartments
128,Cockburn Town,TC,79.88,overcast clouds,21.4612,-71.1419,Osprey Beach Hotel
130,Saint-Georges,GD,79.52,broken clouds,12.0564,-61.7485,Radisson Grenada Beach Resort
134,Huaidian,CN,79.83,broken clouds,33.4333,115.0333,Xihuan Hotel
137,Avera,US,80.74,broken clouds,33.194,-82.5271,
138,Sokone,SN,75.36,broken clouds,13.8833,-16.3667,Hôtel le Caïman
141,Vaitape,PF,78.24,scattered clouds,-16.5167,-151.75,Conrad Bora Bora Nui
142,Sinnamary,GF,77.56,overcast clouds,5.3833,-52.95,ALETHEIA Appartement Sinnamary
144,Rancho Palos Verdes,US,88.21,clear sky,33.7445,-118.387,Terranea Resort
147,Aguadilla,PR,81.68,light rain,18.4275,-67.1541,WSSM Surf House
152,Piranhas,BR,80.37,broken clouds,-16.4269,-51.8222,Planalto Hotel
153,Paka,MY,78.48,overcast clouds,4.6374,103.4368,RUMBIA RESORT VILLA
155,Palu,ID,78.03,overcast clouds,-0.8917,119.8707,Hotel Santika Palu
157,Catuday,PH,82.13,overcast clouds,16.2923,119.8062,GResort
158,Omboue,GA,75.9,overcast clouds,-1.5746,9.2618,Hotel Olako
164,Vanimo,PG,79.48,moderate rain,-2.6741,141.3028,Vahmoneh Lodge Vanimo
169,Oussouye,SN,75.74,overcast clouds,12.485,-16.5469,Auberge du Routard
172,Portland,US,89.62,broken clouds,45.5234,-122.6762,Embassy Suites by Hilton Portland Downtown
181,Bathsheba,BB,80.06,overcast clouds,13.2167,-59.5167,Atlantis Hotel
187,Alofi,NU,82.29,light rain,-19.0595,-169.9187,Taloa Heights
188,Bagru,IN,80.94,scattered clouds,26.8088,75.5423,Nandan Green Housed Limited
192,Tuy Hoa,VN,81.37,broken clouds,13.0833,109.3,CenDeluxe Hotel Tuy Hoa
193,Sinjai,ID,76.19,broken clouds,-5.1241,120.253,Wisma Sandika
194,Waddan,LY,79.07,clear sky,29.1614,16.139,محل الشريف محمد العايب
195,Sassandra,CI,76.44,overcast clouds,4.95,-6.0833,la terrasse
197,Nabire,ID,77.13,overcast clouds,-3.3667,135.4833,Hotel Nusantara Nabire
201,Georgetown,MY,79.9,few clouds,5.4112,100.3354,Cititel Penang
205,Great Falls,US,76.66,few clouds,47.5002,-111.3008,La Quinta Inn & Suites by Wyndham Great Falls
210,Hit,IQ,87.4,clear sky,33.6416,42.8251,صالون زيرو
214,Alta Floresta,BR,75.36,broken clouds,-9.8756,-56.0861,Floresta Amazonica Hotel
215,Vernon,CA,85.3,overcast clouds,50.2581,-119.2691,Prestige Vernon Lodge and Conference Centre
216,Balabac,PH,82.71,light rain,7.9868,117.0645,Sing and Swing Lodge
217,Bairiki,KI,86.0,light rain,1.3292,172.9752,Tarawa Boutique Hotel
219,Eydhafushi,MV,83.21,scattered clouds,5.1033,73.0708,Soneva Fushi
223,North Bend,US,89.94,clear sky,43.4065,-124.2243,Red Lion Hotel Coos Bay
224,Isla Mujeres,MX,87.01,scattered clouds,21.2311,-86.731,Hotel La Joya Isla Mujeres
231,Suamico,US,75.97,clear sky,44.6319,-88.0393,"Country Inn & Suites by Radisson, Green Bay North, WI"
235,Lazaro Cardenas,MX,87.33,broken clouds,17.9583,-102.2,Hotel Quinta Antigua
242,Darab,IR,81.27,clear sky,28.7519,54.5444,Naghshe shapoor Hotel
244,Hobyo,SO,78.26,broken clouds,5.3505,48.5268,Halane Hotel and Restaurent
247,Kalmunai,LK,80.06,overcast clouds,7.4167,81.8167,VS Villa
248,Starkville,US,81.91,overcast clouds,33.4504,-88.8184,Hilton Garden Inn Starkville
252,Umm Kaddadah,SD,88.34,broken clouds,13.6017,26.6876,
253,Grand Forks,US,75.13,clear sky,47.9417,-97.4337,Warrior Inn
255,Banda Aceh,ID,79.7,overcast clouds,5.5577,95.3222,Sulthan Hotel International
256,Oistins,BB,79.7,overcast clouds,13.0667,-59.5333,Butterfly Beach Hotel
260,Butaritari,KI,83.7,broken clouds,3.0707,172.7902,Isles Sunset Lodge
264,Hambantota,LK,79.68,overcast clouds,6.1241,81.1185,Bungalow 63
274,Ler,SS,84.69,scattered clouds,8.3018,30.1418,
277,Pirawa,IN,86.0,broken clouds,24.1551,76.0273,सामुदायिक भवन सराय पिड़ावा
281,Fort Nelson,CA,77.32,overcast clouds,58.8053,-122.7002,The Fort Nelson Hotel
285,Kavaratti,IN,83.59,overcast clouds,10.5669,72.642,Hotels in Lakshadweep Islands
286,Macherla,IN,88.29,scattered clouds,16.4833,79.4333,Vivek express
287,Victoria,HK,80.94,moderate rain,22.2855,114.1577,Mini Hotel Central
289,West Bay,KY,86.07,few clouds,19.3667,-81.4167,Calypso Cove
292,Jacqueville,CI,80.51,overcast clouds,5.2052,-4.4146,Hotel Le Martin Pecheur
294,Port-Gentil,GA,79.16,overcast clouds,-0.7193,8.7815,Fengshui Residence
297,Takoradi,GH,78.64,overcast clouds,4.8845,-1.7554,Raybow International Hotel
308,Diamantino,BR,75.42,scattered clouds,-14.4086,-56.4461,Hotel Delta
309,Sugal,PH,79.45,light rain,5.6622,125.4617,
315,Amuntai,ID,75.06,scattered clouds,-2.4177,115.2494,Hotel Balqis
334,Luganville,VU,79.39,overcast clouds,-15.5333,167.1667,The Espiritu Hotel
347,Lakatoro,VU,78.73,broken clouds,-16.0999,167.4164,Lakatoro Palm Lodge
352,Manubul,PH,82.98,overcast clouds,5.4732,120.7986,
358,Ixtapa,MX,85.23,broken clouds,20.7,-105.2,Hotel Plaza Providencia
359,Huatulco,MX,81.86,overcast clouds,15.8436,-96.3267,Fonatur Operadora Portuaría
367,Bubaque,GW,78.35,overcast clouds,11.2833,-15.8333,"Casa Dora, Bubaque"
368,Gizo,SB,82.0,moderate rain,-8.103,156.8419,Imagination Island
369,Mountain Home,US,85.48,clear sky,43.133,-115.6912,Mountain Home Inn
371,Xiongzhou,CN,76.26,overcast clouds,25.1167,114.3,Xinhewan Business Hotel
377,Lompoc,US,80.74,overcast clouds,34.6391,-120.4579,"Holiday Inn Express Lompoc, an IHG Hotel"
378,Progreso,MX,83.1,clear sky,21.2833,-89.6667,Playa Linda Hotel
380,Makakilo City,US,82.72,clear sky,21.3469,-158.0858,Marriott's Ko Olina Beach Club
398,Acarau,BR,79.05,scattered clouds,-2.8856,-40.12,castelo pizzaria
404,Pathein,MM,79.84,overcast clouds,16.7833,94.7333,New Pammawaddy Hotel
405,Yenagoa,NG,75.51,overcast clouds,4.9247,6.2642,Aridolf Resort Wellness and Spa
409,Jalu,LY,77.54,clear sky,29.0331,21.5482,صاحبة الفخامة
410,Pak Phanang,TH,80.74,broken clouds,8.3511,100.202,Green Park Inn Hotel
412,Riyadh,SA,89.15,clear sky,24.6877,46.7219,"InterContinental Riyadh, an IHG Hotel"
414,Basco,PH,83.97,overcast clouds,20.4487,121.9702,Nathaniel's Lodge
419,Kutum,SD,84.15,overcast clouds,14.2,24.6667,Dibbo areaمنطقة دبو
423,Galle,LK,80.65,overcast clouds,6.0367,80.217,Amangalla
425,Kudahuvadhoo,MV,82.96,broken clouds,2.6708,72.8944,Niyama Private Islands Maldives
427,Simplicio Mendes,BR,81.36,few clouds,-7.8539,-41.9103,Fidalgo
433,Sakakah,SA,85.95,clear sky,29.9697,40.2064,Fakhamat Al Orjoana Apartment
434,Waingapu,ID,75.96,overcast clouds,-9.6567,120.2641,Pondok Wisata Elim
436,Veraval,IN,82.74,scattered clouds,20.9,70.3667,Lords Inn Somnath
437,Poso,ID,83.34,broken clouds,-1.3959,120.7524,Hotel 77 Poso
438,Winnemucca,US,87.85,clear sky,40.973,-117.7357,Winners Inn Casino
439,Eyl,SO,79.45,overcast clouds,7.9803,49.8164,Amiin Hotel
441,Luanda,AO,77.0,broken clouds,-8.8368,13.2343,LANDU MARINEZA LUFUANDU TONI
445,Murgab,TM,82.27,clear sky,37.4966,61.9714,
451,Coari,BR,79.7,few clouds,-4.085,-63.1414,HOTEL ALEX FLAT
454,Micheweni,TZ,75.65,few clouds,-4.9667,39.8333,
456,Alyangula,AU,79.03,scattered clouds,-13.8483,136.4192,Groote Eylandt Lodge
458,The Valley,AI,81.1,scattered clouds,18.217,-63.0578,CeBlue Villas & Beach Resort
459,Peddapalli,IN,87.48,broken clouds,18.6167,79.3667,THE PEDDAPALLI ROCKS/VLOGS/EXTRAS & AF PRODUCTIONS
460,Pasni,PK,84.2,clear sky,25.2631,63.471,Kashmiri Hotal
461,Samarai,PG,79.03,broken clouds,-10.6167,150.6667,Nuli Sapi
462,Marzuq,YE,77.99,few clouds,14.4,46.4667,
465,Sola,VU,79.59,overcast clouds,-13.8833,167.55,Leumerus Bungalows
466,Manggar,ID,79.9,overcast clouds,-2.8833,108.2667,Guest Hotel
477,Kloulklubed,PW,84.7,overcast clouds,7.0419,134.2556,Storyboard Beach Resort
489,Islamnagar,IN,85.19,scattered clouds,28.3333,78.7167,AFGAN MASJID
490,Ardakan,IR,77.38,clear sky,32.31,54.0175,Ardakan Hotel
491,Kavieng,PG,81.95,overcast clouds,-2.5744,150.7967,Nusa Island Retreat
501,Sargodha,PK,79.75,clear sky,32.0836,72.6711,Ayesha Hostel
505,Langham,CA,77.83,overcast clouds,52.3668,-106.9679,Shady Rest Motel
506,Santa Rosa,PH,85.98,overcast clouds,14.3122,121.1114,Erlyn’s Sta Rosa City Home
509,Marsh Harbour,BS,78.89,heavy intensity rain,26.5412,-77.0636,Abaco Beach Resort
511,Abu Zabad,SD,89.73,scattered clouds,12.35,29.25,حامد محمد نور
513,Pemba,MZ,75.65,light rain,-12.974,40.5178,Guesthouse Samotina
516,Lethem,GY,78.26,broken clouds,3.3803,-59.7968,Savannah Inn
524,Bam,IR,85.69,clear sky,29.106,58.357,Bam Tourist Hotel
529,Itarema,BR,79.3,scattered clouds,-2.9248,-39.9167,"Sea Lounge! Bar, Club & Restaurant"
533,Nouna,BF,87.21,overcast clouds,12.7333,-3.8667,Sabunyuma So
537,Huicheng,CN,76.95,overcast clouds,23.0385,116.2899,Huilai Hotel
540,Solenzo,BF,84.31,overcast clouds,12.1833,-4.0833,
541,Buala,SB,82.72,light rain,-8.145,159.5921,Maringe Lagoon Lodge
542,Jashpurnagar,IN,79.03,broken clouds,22.9,84.15,Sagar Restaurant
544,Cabedelo,BR,75.87,clear sky,-6.9811,-34.8339,Hotel Pigalle
545,Qui Nhon,VN,82.26,scattered clouds,13.7667,109.2333,Hoang Yen Canary Hotel
546,Dakoro,NE,87.69,clear sky,14.5106,6.765,Shagon mai liverpool
547,Dawlatabad,AF,84.27,clear sky,36.4141,64.9053,WASIM ASGAR KHAN
554,Guiratinga,BR,77.41,broken clouds,-16.3494,-53.7583,Hotel Angra do Cerrado - Guiratinga MT
556,Bandarbeyla,SO,79.36,overcast clouds,9.4942,50.8122,JABIR HOTEL
559,Corsicana,US,81.25,few clouds,32.0954,-96.4689,"Holiday Inn Express & Suites Corsicana I-45, an IHG Hotel"
560,Nhulunbuy,AU,77.61,light rain,-12.2333,136.7667,East Arnhem Real Estate
562,Numan,NG,76.68,light rain,9.4667,12.0333,Zangun Motel
563,Inirida,CO,76.03,overcast clouds,3.8653,-67.9239,Fuente del Guania Hotel de Lujo
564,Kollam,IN,76.87,overcast clouds,8.8833,76.6,Nani Hotels and Resorts
566,Kankon,IN,80.4,scattered clouds,15.0167,74.0167,Palolem Beach Resort
571,Yanam,IN,83.34,broken clouds,16.7333,82.2167,The Regency Hotel
572,Muli,MV,83.5,broken clouds,2.9167,73.5667,Medhufushi Island Resort
574,Radhanpur,IN,83.17,clear sky,23.8333,71.6,YASH HOTEL
578,Kangaba,ML,84.63,broken clouds,11.9333,-8.4167,Hôtel Mandé
580,La Cruz,MX,87.48,clear sky,23.9167,-106.9,LIBERADOR DE CELULAS MADRE ADULTAS
581,Phan Thiet,VN,79.61,scattered clouds,10.9333,108.1,Hotel Saigon-PT
582,Minuri,PH,78.33,overcast clouds,16.535,121.8574,
586,Tiarei,PF,86.02,scattered clouds,-17.5333,-149.3333,Le Rocher de Tahiti
597,Lakhnadon,IN,85.46,broken clouds,22.6,79.6,HOTEL PRIDE
598,Nicoya,CR,85.55,broken clouds,10.1483,-85.452,Guayacan Real
605,Djougou,BJ,78.33,overcast clouds,9.7085,1.666,Hotel cathas
610,Malabo,GQ,79.68,light rain,3.75,8.7833,Hostal Residencia Morenita
615,Kuah,MY,83.5,light rain,6.3265,99.8432,Azio Hotel
619,Cobija,BO,78.98,overcast clouds,-11.0267,-68.7692,Hotel Obelisco
621,Tautira,PF,86.02,scattered clouds,-17.7333,-149.15,Pension Oaoa
626,Male,MV,83.01,clear sky,4.1748,73.5089,Hotel Octave Maldives
628,Russell,US,83.79,clear sky,32.3502,-85.1999,Macs
629,Valley Station,US,77.05,broken clouds,38.1112,-85.8702,Manor Isle Mobile Home & Extended-Stay RV Park
630,Gushikawa,JP,78.03,broken clouds,26.3544,127.8686,Kirari Guest House
637,Huangchuan,CN,77.49,scattered clouds,32.1272,115.0394,Guangzhou International Hotel
638,Lincoln,US,76.12,clear sky,40.8,-96.667,Courtyard by Marriott Lincoln Downtown/Haymarket
641,Kilindoni,TZ,77.68,light rain,-7.9139,39.6668,Bustani B&B
642,Polson,US,79.41,overcast clouds,47.6936,-114.1632,Americas Best Value Port Polson Inn
643,Tual,ID,81.86,clear sky,-5.6667,132.75,Grand Vilia Hotel
644,Dasoguz,TM,77.11,clear sky,41.8363,59.9666,Hotel Erik
646,Monrovia,LR,77.38,light rain,6.3005,-10.7969,Sunset Inn
647,San Carlos,VE,81.39,broken clouds,9.6612,-68.5827,Hotel Paternopoli
658,Aitape,PG,79.57,moderate rain,-3.1374,142.3475,
659,Bekobod,UZ,78.49,broken clouds,40.2208,69.2697,Metallurg
662,Cabinda,AO,76.62,broken clouds,-5.55,12.2,Hotel Maiombe
663,Vila Velha,BR,75.94,few clouds,-20.3297,-40.2925,Quality Suites Vila Velha
665,Rio Tuba,PH,80.87,overcast clouds,8.5061,117.4317,Tagle’s Lodging House
667,Santa Catalina,PH,80.74,moderate rain,9.3337,122.8637,Don Pacondo
673,Yilan,TW,82.36,overcast clouds,24.757,121.753,Dar Chen Hotel
